{
  "flights_airports": [
    {
      "id": "2",
      "code": "BJY",
      "name": "Batajnica Arpt",
      "cityCode": "BEG",
      "cityName": "Belgrade",
      "countryName": "SERBIA",
      "countryCode": "RS",
      "timezone": "1",
      "lat": "44.9236",
      "lon": "20.279",
      "city": "false"
    },
    {
      "id": "3",
      "code": "BJZ",
      "name": "Talaveral La Real Arpt",
      "cityCode": "BJZ",
      "cityName": "Badajoz",
      "countryName": "SPAIN",
      "countryCode": "ES",
      "timezone": "1",
      "lat": "38.89125",
      "lon": "-6.821333",
      "city": "true"
    },
    {
      "id": "4",
      "code": "BKB",
      "name": "Bikaner Arpt",
      "cityCode": "BKB",
      "cityName": "Bikaner",
      "countryName": "INDIA",
      "countryCode": "IN",
      "timezone": "5",
      "lat": "0",
      "lon": "0",
      "city": "true"
    },
    {
      "id": "5",
      "code": "BKG",
      "name": "Branson Regional Arpt",
      "cityCode": "BKG",
      "cityName": "Branson",
      "countryName": "UNITED STATES",
      "countryCode": "US",
      "timezone": "-6",
      "lat": "36.531994",
      "lon": "-93.200556",
      "city": "true"
    },
    {
      "id": "6",
      "code": "BKI",
      "name": "Kota Kinabalu Arpt",
      "cityCode": "BKI",
      "cityName": "Kota Kinabalu",
      "countryName": "MALAYSIA",
      "countryCode": "MY",
      "timezone": "8",
      "lat": "5.937208",
      "lon": "116.051181",
      "city": "true"
    },
    {
      "id": "7",
      "code": "BKK",
      "name": "Suvarnabhumi Intl Arpt",
      "cityCode": "BKK",
      "cityName": "Bangkok",
      "countryName": "THAILAND",
      "countryCode": "TH",
      "timezone": "7",
      "lat": "13.681108",
      "lon": "100.747283",
      "city": "true"
    },
    {
      "id": "8",
      "code": "BKL",
      "name": "Burke Lakefront Arpt",
      "cityCode": "CLE",
      "cityName": "Cleveland",
      "countryName": "UNITED STATES",
      "countryCode": "US",
      "timezone": "-5",
      "lat": "41.525",
      "lon": "-81.6833",
      "city": "false"
    },
    {
      "id": "9",
      "code": "BKM",
      "name": "Bakalalan Arpt",
      "cityCode": "BKM",
      "cityName": "Bakalalan",
      "countryName": "MALAYSIA",
      "countryCode": "MY",
      "timezone": "8",
      "lat": "3.974",
      "lon": "115.618",
      "city": "true"
    },
    {
      "id": "10",
      "code": "BKO",
      "name": "Senou Airport",
      "cityCode": "BKO",
      "cityName": "Bamako",
      "countryName": "MALI",
      "countryCode": "ML",
      "timezone": "0",
      "lat": "12.533544",
      "lon": "-7.949944",
      "city": "true"
    },
    {
      "id": "11",
      "code": "BKQ",
      "name": "Blackall Arpt",
      "cityCode": "BKQ",
      "cityName": "Blackall",
      "countryName": "AUSTRALIA",
      "countryCode": "AU",
      "timezone": "10",
      "lat": "-24.42777",
      "lon": "145.428611",
      "city": "true"
    },
    {
      "id": "12",
      "code": "BKS",
      "name": "Padangkemiling Arpt",
      "cityCode": "BKS",
      "cityName": "Bengkulu",
      "countryName": "INDONESIA",
      "countryCode": "ID",
      "timezone": "7",
      "lat": "-3.8637",
      "lon": "102.339036",
      "city": "true"
    },
    {
      "id": "13",
      "code": "BKW",
      "name": "Raleigh Cty Memorial",
      "cityCode": "BKW",
      "cityName": "Beckley",
      "countryName": "UNITED STATES",
      "countryCode": "US",
      "timezone": "-5",
      "lat": "37.7873",
      "lon": "-81.1242",
      "city": "true"
    },
    {
      "id": "14",
      "code": "BKX",
      "name": "Brookings Municipal",
      "cityCode": "BKX",
      "cityName": "Brookings",
      "countryName": "UNITED STATES",
      "countryCode": "US",
      "timezone": "-6",
      "lat": "44.3048",
      "lon": "-96.8169",
      "city": "true"
    },
    {
      "id": "15",
      "code": "BLA",
      "name": "Gen J A Anzoategui Arpt",
      "cityCode": "BLA",
      "cityName": "Barcelona",
      "countryName": "VENEZUELA",
      "countryCode": "VE",
      "timezone": "-4",
      "lat": "10.107139",
      "lon": "-64.689161",
      "city": "true"
    },
    {
      "id": "16",
      "code": "BLD",
      "name": "Boulder City Municipal Arpt",
      "cityCode": "LAS",
      "cityName": "Las Vegas",
      "countryName": "UNITED STATES",
      "countryCode": "US",
      "timezone": "-8",
      "lat": "35.5651",
      "lon": "-114.514",
      "city": "false"
    },
    {
      "id": "17",
      "code": "BLE",
      "name": "Dala Airport",
      "cityCode": "BLE",
      "cityName": "Borlange",
      "countryName": "SWEDEN",
      "countryCode": "SE",
      "timezone": "1",
      "lat": "60.422017",
      "lon": "15.515211",
      "city": "true"
    },
    {
      "id": "18",
      "code": "BLF",
      "name": "Mercer County",
      "cityCode": "BLF",
      "cityName": "Bluefield",
      "countryName": "UNITED STATES",
      "countryCode": "US",
      "timezone": "-5",
      "lat": "37.2958",
      "lon": "-81.2077",
      "city": "true"
    },
    {
      "id": "19",
      "code": "BLG",
      "name": "Belaga Arpt",
      "cityCode": "BLG",
      "cityName": "Belaga",
      "countryName": "MALAYSIA",
      "countryCode": "MY",
      "timezone": "8",
      "lat": "2.65",
      "lon": "113.767",
      "city": "true"
    },
    {
      "id": "20",
      "code": "BLH",
      "name": "Blythe Airport",
      "cityCode": "BLH",
      "cityName": "Blythe",
      "countryName": "UNITED STATES",
      "countryCode": "US",
      "timezone": "-8",
      "lat": "33.619167",
      "lon": "-114.71688",
      "city": "true"
    },
    {
      "id": "21",
      "code": "BLI",
      "name": "Bellingham Intl Arpt",
      "cityCode": "BLI",
      "cityName": "Bellingham",
      "countryName": "UNITED STATES",
      "countryCode": "US",
      "timezone": "-8",
      "lat": "48.792694",
      "lon": "-122.53752",
      "city": "true"
    },
    {
      "id": "22",
      "code": "BLJ",
      "name": "Batna Arpt",
      "cityCode": "BLJ",
      "cityName": "Batna",
      "countryName": "ALGERIA",
      "countryCode": "DZ",
      "timezone": "1",
      "lat": "35.752106",
      "lon": "6.308589",
      "city": "true"
    },
    {
      "id": "23",
      "code": "BLK",
      "name": "Blackpool Airport",
      "cityCode": "BLK",
      "cityName": "Blackpool",
      "countryName": "UNITED KINGDOM",
      "countryCode": "GB",
      "timezone": "0",
      "lat": "53.771667",
      "lon": "-3.028611",
      "city": "true"
    },
    {
      "id": "24",
      "code": "BLL",
      "name": "Billund Airport",
      "cityCode": "BLL",
      "cityName": "Billund",
      "countryName": "DENMARK",
      "countryCode": "DK",
      "timezone": "1",
      "lat": "55.740322",
      "lon": "9.151778",
      "city": "true"
    },
    {
      "id": "25",
      "code": "BLQ",
      "name": "Guglielmo Marconi",
      "cityCode": "BLQ",
      "cityName": "Bologna",
      "countryName": "ITALY",
      "countryCode": "IT",
      "timezone": "1",
      "lat": "44.535444",
      "lon": "11.288667",
      "city": "true"
    },
    {
      "id": "26",
      "code": "BLR",
      "name": "Bengaluru Intl Arpt",
      "cityCode": "BLR",
      "cityName": "Bangalore",
      "countryName": "INDIA",
      "countryCode": "IN",
      "timezone": "5",
      "lat": "12.949986",
      "lon": "77.668206",
      "city": "true"
    },
    {
      "id": "27",
      "code": "BLT",
      "name": "Blackwater Arpt",
      "cityCode": "BLT",
      "cityName": "Blackwater",
      "countryName": "AUSTRALIA",
      "countryCode": "AU",
      "timezone": "10",
      "lat": "-23.6031",
      "lon": "148.807",
      "city": "true"
    },
    {
      "id": "28",
      "code": "BLV",
      "name": "Scott AFB Mid America",
      "cityCode": "BLV",
      "cityName": "Belleville",
      "countryName": "UNITED STATES",
      "countryCode": "US",
      "timezone": "-6",
      "lat": "38.545178",
      "lon": "-89.835183",
      "city": "true"
    },
    {
      "id": "29",
      "code": "BLZ",
      "name": "Chileka Airport",
      "cityCode": "BLZ",
      "cityName": "Blantyre",
      "countryName": "MALAWI",
      "countryCode": "MW",
      "timezone": "2",
      "lat": "-15.67905",
      "lon": "34.974014",
      "city": "true"
    },
    {
      "id": "30",
      "code": "BMA",
      "name": "Bromma Airport",
      "cityCode": "STO",
      "cityName": "Stockholm",
      "countryName": "SWEDEN",
      "countryCode": "SE",
      "timezone": "1",
      "lat": "59.354372",
      "lon": "17.94165",
      "city": "false"
    },
    {
      "id": "31",
      "code": "BMG",
      "name": "Monroe Cty Arpt Indiana",
      "cityCode": "BMG",
      "cityName": "Bloomington",
      "countryName": "UNITED STATES",
      "countryCode": "US",
      "timezone": "-5",
      "lat": "39.146021",
      "lon": "-86.616681",
      "city": "true"
    },
    {
      "id": "32",
      "code": "BMI",
      "name": "Normal Airport",
      "cityCode": "BMI",
      "cityName": "Bloomington",
      "countryName": "UNITED STATES",
      "countryCode": "US",
      "timezone": "-6",
      "lat": "40.477111",
      "lon": "-88.915917",
      "city": "true"
    },
    {
      "id": "33",
      "code": "BMV",
      "name": "Phung Duc Arpt",
      "cityCode": "BMV",
      "cityName": "Banmethuot",
      "countryName": "VIET NAM",
      "countryCode": "VN",
      "timezone": "7",
      "lat": "12.668311",
      "lon": "108.120272",
      "city": "true"
    },
    {
      "id": "34",
      "code": "BNA",
      "name": "Nashville International Arpt",
      "cityCode": "BNA",
      "cityName": "Nashville",
      "countryName": "UNITED STATES",
      "countryCode": "US",
      "timezone": "-6",
      "lat": "36.124472",
      "lon": "-86.678194",
      "city": "true"
    },
    {
      "id": "35",
      "code": "BNK",
      "name": "Ballina Arpt",
      "cityCode": "BNK",
      "cityName": "Ballina",
      "countryName": "AUSTRALIA",
      "countryCode": "AU",
      "timezone": "11",
      "lat": "-28.83388",
      "lon": "153.5625",
      "city": "true"
    },
    {
      "id": "36",
      "code": "BNN",
      "name": "Bronnoy Arpt",
      "cityCode": "BNN",
      "cityName": "Bronnoysund",
      "countryName": "NORWAY",
      "countryCode": "NO",
      "timezone": "1",
      "lat": "65.461111",
      "lon": "12.2175",
      "city": "true"
    },
    {
      "id": "37",
      "code": "BNO",
      "name": "Burns Municipal Arpt",
      "cityCode": "BNO",
      "cityName": "Burns",
      "countryName": "UNITED STATES",
      "countryCode": "US",
      "timezone": "-8",
      "lat": "43.5919",
      "lon": "-118.9554",
      "city": "true"
    },
    {
      "id": "38",
      "code": "BNX",
      "name": "Banja Luka Arpt",
      "cityCode": "BNX",
      "cityName": "Banja Luka",
      "countryName": "BOSNIA AND HERZEGOVINA",
      "countryCode": "BA",
      "timezone": "1",
      "lat": "44.941444",
      "lon": "17.297501",
      "city": "true"
    },
    {
      "id": "39",
      "code": "BOB",
      "name": "Motu Mute Arpt",
      "cityCode": "BOB",
      "cityName": "Bora Bora",
      "countryName": "FRENCH POLYNESIA",
      "countryCode": "PF",
      "timezone": "-10",
      "lat": "-16.44437",
      "lon": "-151.75128",
      "city": "true"
    },
    {
      "id": "40",
      "code": "BOC",
      "name": "Bocas Del Toro Arpt",
      "cityCode": "BOC",
      "cityName": "Bocas Del Toro",
      "countryName": "PANAMA",
      "countryCode": "PA",
      "timezone": "-5",
      "lat": "9.340853",
      "lon": "-82.250842",
      "city": "true"
    },
    {
      "id": "41",
      "code": "BOG",
      "name": "Eldorado Airport",
      "cityCode": "BOG",
      "cityName": "Bogota",
      "countryName": "COLOMBIA",
      "countryCode": "CO",
      "timezone": "-5",
      "lat": "4.701594",
      "lon": "-74.146947",
      "city": "true"
    },
    {
      "id": "42",
      "code": "BOH",
      "name": "Bournemouth Intl Arpt",
      "cityCode": "BOH",
      "cityName": "Bournemouth",
      "countryName": "UNITED KINGDOM",
      "countryCode": "GB",
      "timezone": "0",
      "lat": "50.78",
      "lon": "-1.8425",
      "city": "true"
    },
    {
      "id": "43",
      "code": "BOI",
      "name": "Boise Municipal Arpt Gowen Field",
      "cityCode": "BOI",
      "cityName": "Boise",
      "countryName": "UNITED STATES",
      "countryCode": "US",
      "timezone": "-7",
      "lat": "43.564361",
      "lon": "-116.22286",
      "city": "true"
    },
    {
      "id": "44",
      "code": "BOK",
      "name": "Brookings State Arpt",
      "cityCode": "BOK",
      "cityName": "Brookings",
      "countryName": "UNITED STATES",
      "countryCode": "US",
      "timezone": "-8",
      "lat": "0",
      "lon": "0",
      "city": "true"
    },
    {
      "id": "45",
      "code": "BOM",
      "name": "Chhatrapati Shivaji",
      "cityCode": "BOM",
      "cityName": "Mumbai",
      "countryName": "INDIA",
      "countryCode": "IN",
      "timezone": "5",
      "lat": "19.088686",
      "lon": "72.867919",
      "city": "true"
    },
    {
      "id": "46",
      "code": "BON",
      "name": "Flamingo Field",
      "cityCode": "BON",
      "cityName": "Bonaire",
      "countryName": "NETHERLANDS ANTILLES",
      "countryCode": "AN",
      "timezone": "-4",
      "lat": "12.131044",
      "lon": "-68.268511",
      "city": "true"
    },
    {
      "id": "47",
      "code": "BOS",
      "name": "Logan Intl Arpt",
      "cityCode": "BOS",
      "cityName": "Boston",
      "countryName": "UNITED STATES",
      "countryCode": "US",
      "timezone": "-5",
      "lat": "42.364347",
      "lon": "-71.005181",
      "city": "true"
    },
    {
      "id": "48",
      "code": "BOU",
      "name": "Bourges Arpt",
      "cityCode": "BOU",
      "cityName": "Bourges",
      "countryName": "FRANCE",
      "countryCode": "FR",
      "timezone": "1",
      "lat": "47.058056",
      "lon": "2.370278",
      "city": "true"
    },
    {
      "id": "49",
      "code": "BOW",
      "name": "Bartow Arpt",
      "cityCode": "BOW",
      "cityName": "Bartow",
      "countryName": "UNITED STATES",
      "countryCode": "US",
      "timezone": "-5",
      "lat": "27.9434",
      "lon": "-81.7834",
      "city": "true"
    },
    {
      "id": "50",
      "code": "BOY",
      "name": "Borgo Arpt",
      "cityCode": "BOY",
      "cityName": "Bobo Dioulasso",
      "countryName": "BURKINA FASO",
      "countryCode": "BF",
      "timezone": "0",
      "lat": "11.160056",
      "lon": "-4.330969",
      "city": "true"
    },
    {
      "id": "51",
      "code": "BPN",
      "name": "Sepingan Arpt",
      "cityCode": "BPN",
      "cityName": "Balikpapan",
      "countryName": "INDONESIA",
      "countryCode": "ID",
      "timezone": "8",
      "lat": "-1.268272",
      "lon": "116.894478",
      "city": "true"
    },
    {
      "id": "52",
      "code": "BPS",
      "name": "Porto Seguro Arpt",
      "cityCode": "BPS",
      "cityName": "Porto Seguro",
      "countryName": "BRAZIL",
      "countryCode": "BR",
      "timezone": "-3",
      "lat": "-16.43861",
      "lon": "-39.080833",
      "city": "true"
    },
    {
      "id": "53",
      "code": "BQB",
      "name": "Busselton Arpt",
      "cityCode": "BQB",
      "cityName": "Busselton",
      "countryName": "AUSTRALIA",
      "countryCode": "AU",
      "timezone": "8",
      "lat": "-33.6867",
      "lon": "115.4",
      "city": "true"
    },
    {
      "id": "54",
      "code": "BQK",
      "name": "Gylnco Jet Port",
      "cityCode": "BQK",
      "cityName": "Brunswick",
      "countryName": "UNITED STATES",
      "countryCode": "US",
      "timezone": "-5",
      "lat": "31.2588",
      "lon": "-81.4665",
      "city": "true"
    },
    {
      "id": "55",
      "code": "BQL",
      "name": "Boulia Arpt",
      "cityCode": "BQL",
      "cityName": "Boulia",
      "countryName": "AUSTRALIA",
      "countryCode": "AU",
      "timezone": "10",
      "lat": "-22.9133",
      "lon": "139.9",
      "city": "true"
    },
    {
      "id": "56",
      "code": "BQS",
      "name": "Blagoveshchensk Arpt",
      "cityCode": "BQS",
      "cityName": "Blagoveshchensk",
      "countryName": "RUSSIA",
      "countryCode": "RU",
      "timezone": "9",
      "lat": "50.425394",
      "lon": "127.412478",
      "city": "true"
    },
    {
      "id": "57",
      "code": "BQT",
      "name": "Brest Arpt",
      "cityCode": "BQT",
      "cityName": "Brest",
      "countryName": "BELARUS",
      "countryCode": "BY",
      "timezone": "3",
      "lat": "52.06",
      "lon": "23.53",
      "city": "true"
    },
    {
      "id": "58",
      "code": "BRA",
      "name": "Barreiras Arpt",
      "cityCode": "BRA",
      "cityName": "Barreiras",
      "countryName": "BRAZIL",
      "countryCode": "BR",
      "timezone": "-3",
      "lat": "-12.08333",
      "lon": "-45",
      "city": "true"
    },
    {
      "id": "59",
      "code": "BRC",
      "name": "San Carlos De Bariloche Intl Arpt",
      "cityCode": "BRC",
      "cityName": "San Carlos Bariloche",
      "countryName": "ARGENTINA",
      "countryCode": "AR",
      "timezone": "-3",
      "lat": "-41.15117",
      "lon": "-71.157542",
      "city": "true"
    },
    {
      "id": "60",
      "code": "BRE",
      "name": "Bremen Airport",
      "cityCode": "BRE",
      "cityName": "Bremen",
      "countryName": "GERMANY",
      "countryCode": "DE",
      "timezone": "1",
      "lat": "53.0475",
      "lon": "8.786667",
      "city": "true"
    },
    {
      "id": "61",
      "code": "BRI",
      "name": "Bari Airport",
      "cityCode": "BRI",
      "cityName": "Bari",
      "countryName": "ITALY",
      "countryCode": "IT",
      "timezone": "1",
      "lat": "41.138856",
      "lon": "16.760594",
      "city": "true"
    },
    {
      "id": "62",
      "code": "BRK",
      "name": "Bourke Airport",
      "cityCode": "BRK",
      "cityName": "Bourke",
      "countryName": "AUSTRALIA",
      "countryCode": "AU",
      "timezone": "11",
      "lat": "-30.0392",
      "lon": "145.952",
      "city": "true"
    },
    {
      "id": "63",
      "code": "BRL",
      "name": "Burlington Municipal Arpt",
      "cityCode": "BRL",
      "cityName": "Burlington",
      "countryName": "UNITED STATES",
      "countryCode": "US",
      "timezone": "-6",
      "lat": "40.7832",
      "lon": "-91.1255",
      "city": "true"
    },
    {
      "id": "64",
      "code": "BRM",
      "name": "Airport Barquisimeto",
      "cityCode": "BRM",
      "cityName": "Barquisimeto",
      "countryName": "VENEZUELA",
      "countryCode": "VE",
      "timezone": "-4",
      "lat": "10.042747",
      "lon": "-69.358619",
      "city": "true"
    },
    {
      "id": "65",
      "code": "BRN",
      "name": "Belp Airport",
      "cityCode": "BRN",
      "cityName": "Berne",
      "countryName": "SWITZERLAND",
      "countryCode": "CH",
      "timezone": "1",
      "lat": "46.9141",
      "lon": "7.497153",
      "city": "true"
    },
    {
      "id": "66",
      "code": "BRO",
      "name": "South Padre Island Intl Arpt",
      "cityCode": "BRO",
      "cityName": "Brownsville",
      "countryName": "UNITED STATES",
      "countryCode": "US",
      "timezone": "-6",
      "lat": "25.906833",
      "lon": "-97.425861",
      "city": "true"
    },
    {
      "id": "67",
      "code": "BRQ",
      "name": "Turnay Arpt",
      "cityCode": "BRQ",
      "cityName": "Brno",
      "countryName": "CZECH REPUBLIC",
      "countryCode": "CZ",
      "timezone": "1",
      "lat": "49.151269",
      "lon": "16.694433",
      "city": "true"
    },
    {
      "id": "68",
      "code": "BRR",
      "name": "North Bay Arpt",
      "cityCode": "BRR",
      "cityName": "Barra",
      "countryName": "UNITED KINGDOM",
      "countryCode": "GB",
      "timezone": "0",
      "lat": "57.0228",
      "lon": "-7.44306",
      "city": "true"
    },
    {
      "id": "69",
      "code": "BRS",
      "name": "Bristol Intl Arpt",
      "cityCode": "BRS",
      "cityName": "Bristol",
      "countryName": "UNITED KINGDOM",
      "countryCode": "GB",
      "timezone": "0",
      "lat": "51.382669",
      "lon": "-2.719089",
      "city": "true"
    },
    {
      "id": "70",
      "code": "BRT",
      "name": "Bathurst Island Arpt",
      "cityCode": "BRT",
      "cityName": "Bathurst Isl",
      "countryName": "AUSTRALIA",
      "countryCode": "AU",
      "timezone": "9",
      "lat": "-11.76916",
      "lon": "130.619722",
      "city": "true"
    },
    {
      "id": "71",
      "code": "BRU",
      "name": "Brussels National Arpt",
      "cityCode": "BRU",
      "cityName": "Brussels",
      "countryName": "BELGIUM",
      "countryCode": "BE",
      "timezone": "1",
      "lat": "50.901389",
      "lon": "4.484444",
      "city": "true"
    },
    {
      "id": "72",
      "code": "BRV",
      "name": "Bremerhaven Arpt",
      "cityCode": "BRV",
      "cityName": "Bremerhaven",
      "countryName": "GERMANY",
      "countryCode": "DE",
      "timezone": "1",
      "lat": "53.507081",
      "lon": "8.572878",
      "city": "true"
    },
    {
      "id": "73",
      "code": "BRW",
      "name": "Barrow WBAS",
      "cityCode": "BRW",
      "cityName": "Barrow",
      "countryName": "UNITED STATES",
      "countryCode": "US",
      "timezone": "-9",
      "lat": "71.285446",
      "lon": "-156.76600",
      "city": "true"
    },
    {
      "id": "74",
      "code": "BRX",
      "name": "Barahona Arpt",
      "cityCode": "BRX",
      "cityName": "Barahona",
      "countryName": "DOMINICAN REPUBLIC",
      "countryCode": "DO",
      "timezone": "-4",
      "lat": "18.251464",
      "lon": "-71.1204",
      "city": "true"
    },
    {
      "id": "75",
      "code": "BSB",
      "name": "Brasilia Intl Arpt",
      "cityCode": "BSB",
      "cityName": "Brasilia",
      "countryName": "BRAZIL",
      "countryCode": "BR",
      "timezone": "-2",
      "lat": "-15.8711",
      "lon": "-47.918625",
      "city": "true"
    },
    {
      "id": "76",
      "code": "BSD",
      "name": "Baoshan Arpt",
      "cityCode": "BSD",
      "cityName": "Baoshan",
      "countryName": "CHINA",
      "countryCode": "CN",
      "timezone": "8",
      "lat": "25.053333",
      "lon": "99.168333",
      "city": "true"
    },
    {
      "id": "77",
      "code": "BSH",
      "name": "Brighton Airport",
      "cityCode": "BSH",
      "cityName": "Brighton",
      "countryName": "UNITED KINGDOM",
      "countryCode": "GB",
      "timezone": "0",
      "lat": "0",
      "lon": "0",
      "city": "true"
    },
    {
      "id": "78",
      "code": "BSI",
      "name": "Blairsville Arpt",
      "cityCode": "BSI",
      "cityName": "Blairsville",
      "countryName": "UNITED STATES",
      "countryCode": "US",
      "timezone": "-5",
      "lat": "0",
      "lon": "0",
      "city": "true"
    },
    {
      "id": "79",
      "code": "BSJ",
      "name": "Bairnsdale Airport",
      "cityCode": "BSJ",
      "cityName": "Bairnsdale",
      "countryName": "AUSTRALIA",
      "countryCode": "AU",
      "timezone": "11",
      "lat": "-37.8883",
      "lon": "147.5683",
      "city": "true"
    },
    {
      "id": "80",
      "code": "BSK",
      "name": "Biskra Arpt",
      "cityCode": "BSK",
      "cityName": "Biskra",
      "countryName": "ALGERIA",
      "countryCode": "DZ",
      "timezone": "1",
      "lat": "34.793289",
      "lon": "5.738231",
      "city": "true"
    },
    {
      "id": "81",
      "code": "BSL",
      "name": "Basel EuroAirport Swiss",
      "cityCode": "BSL",
      "cityName": "Basel",
      "countryName": "SWITZERLAND",
      "countryCode": "CH",
      "timezone": "1",
      "lat": "47.59",
      "lon": "7.529167",
      "city": "true"
    },
    {
      "id": "82",
      "code": "BSQ",
      "name": "Bisbee Municipal Arpt",
      "cityCode": "BSQ",
      "cityName": "Bisbee",
      "countryName": "UNITED STATES",
      "countryCode": "US",
      "timezone": "-7",
      "lat": "0",
      "lon": "0",
      "city": "true"
    },
    {
      "id": "83",
      "code": "BSR",
      "name": "Basra Intl Arpt",
      "cityCode": "BSR",
      "cityName": "Basra",
      "countryName": "IRAQ",
      "countryCode": "IQ",
      "timezone": "3",
      "lat": "30.549069",
      "lon": "47.662142",
      "city": "true"
    },
    {
      "id": "84",
      "code": "BTH",
      "name": "Hang Nadim Arpt",
      "cityCode": "BTH",
      "cityName": "Batam",
      "countryName": "INDONESIA",
      "countryCode": "ID",
      "timezone": "7",
      "lat": "1.121028",
      "lon": "104.118753",
      "city": "true"
    },
    {
      "id": "85",
      "code": "BTJ",
      "name": "Blang Bintang Arpt",
      "cityCode": "BTJ",
      "cityName": "Banda Aceh",
      "countryName": "INDONESIA",
      "countryCode": "ID",
      "timezone": "7",
      "lat": "5.523522",
      "lon": "95.420372",
      "city": "true"
    },
    {
      "id": "86",
      "code": "BTK",
      "name": "Bratsk Arpt",
      "cityCode": "BTK",
      "cityName": "Bratsk",
      "countryName": "RUSSIA",
      "countryCode": "RU",
      "timezone": "8",
      "lat": "56.370556",
      "lon": "101.698331",
      "city": "true"
    },
    {
      "id": "87",
      "code": "BTL",
      "name": "WK Kellogg Regional",
      "cityCode": "BTL",
      "cityName": "Battle Creek",
      "countryName": "UNITED STATES",
      "countryCode": "US",
      "timezone": "-5",
      "lat": "42.3075",
      "lon": "-85.2517",
      "city": "true"
    },
    {
      "id": "88",
      "code": "BTM",
      "name": "Bert Mooney Arpt",
      "cityCode": "BTM",
      "cityName": "Butte",
      "countryName": "UNITED STATES",
      "countryCode": "US",
      "timezone": "-7",
      "lat": "45.954806",
      "lon": "-112.49747",
      "city": "true"
    },
    {
      "id": "89",
      "code": "BTS",
      "name": "Ivanka Arpt",
      "cityCode": "BTS",
      "cityName": "Bratislava",
      "countryName": "SLOVAKIA",
      "countryCode": "SK",
      "timezone": "1",
      "lat": "48.170167",
      "lon": "17.212667",
      "city": "true"
    },
    {
      "id": "90",
      "code": "BTU",
      "name": "Bintulu Arpt",
      "cityCode": "BTU",
      "cityName": "Bintulu",
      "countryName": "MALAYSIA",
      "countryCode": "MY",
      "timezone": "8",
      "lat": "3.12385",
      "lon": "113.020472",
      "city": "true"
    },
    {
      "id": "91",
      "code": "BTV",
      "name": "Burlington Intl Arpt",
      "cityCode": "BTV",
      "cityName": "Burlington",
      "countryName": "UNITED STATES",
      "countryCode": "US",
      "timezone": "-5",
      "lat": "44.471861",
      "lon": "-73.153278",
      "city": "true"
    },
    {
      "id": "92",
      "code": "BUD",
      "name": "Ferihegy Arpt",
      "cityCode": "BUD",
      "cityName": "Budapest",
      "countryName": "HUNGARY",
      "countryCode": "HU",
      "timezone": "1",
      "lat": "47.436933",
      "lon": "19.255592",
      "city": "true"
    },
    {
      "id": "93",
      "code": "BUF",
      "name": "Greater Buffalo Intl Arpt",
      "cityCode": "BUF",
      "cityName": "Buffalo",
      "countryName": "UNITED STATES",
      "countryCode": "US",
      "timezone": "-5",
      "lat": "42.940525",
      "lon": "-78.732167",
      "city": "true"
    },
    {
      "id": "94",
      "code": "BUN",
      "name": "Buenaventura Arpt",
      "cityCode": "BUN",
      "cityName": "Buenaventura",
      "countryName": "COLOMBIA",
      "countryCode": "CO",
      "timezone": "-5",
      "lat": "3.819628",
      "lon": "-76.989767",
      "city": "true"
    },
    {
      "id": "95",
      "code": "BUR",
      "name": "Burbank Glendale Pasadena Arpt",
      "cityCode": "BUR",
      "cityName": "Burbank",
      "countryName": "UNITED STATES",
      "countryCode": "US",
      "timezone": "-8",
      "lat": "34.200667",
      "lon": "-118.35866",
      "city": "true"
    },
    {
      "id": "96",
      "code": "BUS",
      "name": "Batumi Arpt",
      "cityCode": "BUS",
      "cityName": "Batumi",
      "countryName": "GEORGIA",
      "countryCode": "GE",
      "timezone": "4",
      "lat": "41.610278",
      "lon": "41.599694",
      "city": "true"
    },
    {
      "id": "97",
      "code": "BUY",
      "name": "Bunbury Arpt",
      "cityCode": "BUY",
      "cityName": "Bunbury",
      "countryName": "AUSTRALIA",
      "countryCode": "AU",
      "timezone": "8",
      "lat": "36.048543",
      "lon": "-79.474889",
      "city": "true"
    },
    {
      "id": "98",
      "code": "BVA",
      "name": "Beauvais Tille Arpt",
      "cityCode": "PAR",
      "cityName": "Paris",
      "countryName": "FRANCE",
      "countryCode": "FR",
      "timezone": "1",
      "lat": "49.454444",
      "lon": "2.112778",
      "city": "false"
    },
    {
      "id": "99",
      "code": "BVB",
      "name": "Boa Vista Arpt",
      "cityCode": "BVB",
      "cityName": "Boa Vista",
      "countryName": "BRAZIL",
      "countryCode": "BR",
      "timezone": "-4",
      "lat": "2.846311",
      "lon": "-60.690069",
      "city": "true"
    },
    {
      "id": "100",
      "code": "BVC",
      "name": "Rabil Arpt",
      "cityCode": "BVC",
      "cityName": "Boa Vista",
      "countryName": "CAPE VERDE",
      "countryCode": "CV",
      "timezone": "-1",
      "lat": "16.136531",
      "lon": "-22.888897",
      "city": "true"
    },
    {
      "id": "101",
      "code": "BVH",
      "name": "Vilhena Arpt",
      "cityCode": "BVH",
      "cityName": "Vilhena",
      "countryName": "BRAZIL",
      "countryCode": "BR",
      "timezone": "-4",
      "lat": "-12.69437",
      "lon": "-60.098269",
      "city": "true"
    },
    {
      "id": "102",
      "code": "BVI",
      "name": "Birdsville Arpt",
      "cityCode": "BVI",
      "cityName": "Birdsville",
      "countryName": "AUSTRALIA",
      "countryCode": "AU",
      "timezone": "10",
      "lat": "-25.8975",
      "lon": "139.348",
      "city": "true"
    },
    {
      "id": "103",
      "code": "BVO",
      "name": "Bartlesville Municipal Arpt",
      "cityCode": "BVO",
      "cityName": "Bartlesville",
      "countryName": "UNITED STATES",
      "countryCode": "US",
      "timezone": "-6",
      "lat": "0",
      "lon": "0",
      "city": "true"
    },
    {
      "id": "104",
      "code": "BVX",
      "name": "Batesville Municipal",
      "cityCode": "BVX",
      "cityName": "Batesville",
      "countryName": "UNITED STATES",
      "countryCode": "US",
      "timezone": "-6",
      "lat": "0",
      "lon": "0",
      "city": "true"
    },
    {
      "id": "105",
      "code": "BWC",
      "name": "Brawley Arpt",
      "cityCode": "BWC",
      "cityName": "Brawley",
      "countryName": "UNITED STATES",
      "countryCode": "US",
      "timezone": "-8",
      "lat": "0",
      "lon": "0",
      "city": "true"
    },
    {
      "id": "106",
      "code": "BWD",
      "name": "Brownwood Municipal Arpt",
      "cityCode": "BWD",
      "cityName": "Brownwood",
      "countryName": "UNITED STATES",
      "countryCode": "US",
      "timezone": "-6",
      "lat": "31.793611",
      "lon": "-98.9565",
      "city": "true"
    },
    {
      "id": "107",
      "code": "BWE",
      "name": "Braunschweig Arpt",
      "cityCode": "BWE",
      "cityName": "Braunschweig",
      "countryName": "GERMANY",
      "countryCode": "DE",
      "timezone": "1",
      "lat": "52.319167",
      "lon": "10.556111",
      "city": "true"
    },
    {
      "id": "108",
      "code": "BWF",
      "name": "Walney Island",
      "cityCode": "BWF",
      "cityName": "Barrow In Furness",
      "countryName": "UNITED KINGDOM",
      "countryCode": "GB",
      "timezone": "0",
      "lat": "54.131167",
      "lon": "-3.263667",
      "city": "true"
    },
    {
      "id": "109",
      "code": "BWI",
      "name": "Baltimore Washington Intl Arpt",
      "cityCode": "BWI",
      "cityName": "Baltimore",
      "countryName": "UNITED STATES",
      "countryCode": "US",
      "timezone": "-5",
      "lat": "39.175361",
      "lon": "-76.668333",
      "city": "true"
    },
    {
      "id": "110",
      "code": "BWN",
      "name": "Brunei Intl Arpt",
      "cityCode": "BWN",
      "cityName": "Bandar Seri Begawan",
      "countryName": "BRUNEI DARUSSALAM",
      "countryCode": "BN",
      "timezone": "8",
      "lat": "4.9442",
      "lon": "114.928353",
      "city": "true"
    },
    {
      "id": "111",
      "code": "BWQ",
      "name": "Brewarrina Arpt",
      "cityCode": "BWQ",
      "cityName": "Brewarrina",
      "countryName": "AUSTRALIA",
      "countryCode": "AU",
      "timezone": "11",
      "lat": "-29.9756",
      "lon": "146.8156",
      "city": "true"
    },
    {
      "id": "112",
      "code": "BWU",
      "name": "Bankstown Aerodrome",
      "cityCode": "BWU",
      "cityName": "Bankstown",
      "countryName": "AUSTRALIA",
      "countryCode": "AU",
      "timezone": "11",
      "lat": "-33.92444",
      "lon": "150.988333",
      "city": "true"
    },
    {
      "id": "113",
      "code": "BXS",
      "name": "Borrego Valley Arpt",
      "cityCode": "BXS",
      "cityName": "Borrego Springs",
      "countryName": "UNITED STATES",
      "countryCode": "US",
      "timezone": "-8",
      "lat": "33.259028",
      "lon": "-116.32097",
      "city": "true"
    },
    {
      "id": "114",
      "code": "BXU",
      "name": "Butuan Arpt",
      "cityCode": "BXU",
      "cityName": "Butuan",
      "countryName": "PHILIPPINES",
      "countryCode": "PH",
      "timezone": "8",
      "lat": "8.951322",
      "lon": "125.477972",
      "city": "true"
    },
    {
      "id": "115",
      "code": "BYI",
      "name": "Burley Arpt",
      "cityCode": "BYI",
      "cityName": "Burley",
      "countryName": "UNITED STATES",
      "countryCode": "US",
      "timezone": "-7",
      "lat": "42.5433",
      "lon": "-113.7717",
      "city": "true"
    },
    {
      "id": "116",
      "code": "BYU",
      "name": "Bindlacher Berg Arpt",
      "cityCode": "BYU",
      "cityName": "Bayreuth",
      "countryName": "GERMANY",
      "countryCode": "DE",
      "timezone": "1",
      "lat": "49.984428",
      "lon": "11.638569",
      "city": "true"
    },
    {
      "id": "117",
      "code": "BYW",
      "name": "Blakely Is Municipal",
      "cityCode": "BYW",
      "cityName": "Blakely Island",
      "countryName": "UNITED STATES",
      "countryCode": "US",
      "timezone": "-8",
      "lat": "48.56025",
      "lon": "-122.80243",
      "city": "true"
    },
    {
      "id": "118",
      "code": "BZC",
      "name": "Buzios Arpt",
      "cityCode": "BZC",
      "cityName": "Buzios",
      "countryName": "BRAZIL",
      "countryCode": "BR",
      "timezone": "-2",
      "lat": "-22.7656",
      "lon": "-41.965",
      "city": "true"
    },
    {
      "id": "119",
      "code": "BZE",
      "name": "Belize Intl Arpt",
      "cityCode": "BZE",
      "cityName": "Belize City",
      "countryName": "BELIZE",
      "countryCode": "BZ",
      "timezone": "-6",
      "lat": "17.539144",
      "lon": "-88.308203",
      "city": "true"
    },
    {
      "id": "120",
      "code": "BZG",
      "name": "Bydgoszcz Arpt",
      "cityCode": "BZG",
      "cityName": "Bydgoszcz",
      "countryName": "POLAND",
      "countryCode": "PL",
      "timezone": "1",
      "lat": "53.0968",
      "lon": "17.9777",
      "city": "true"
    },
    {
      "id": "121",
      "code": "BZH",
      "name": "Bumi Hills Arpt",
      "cityCode": "BZH",
      "cityName": "Bumi Hills",
      "countryName": "ZIMBABWE",
      "countryCode": "ZW",
      "timezone": "2",
      "lat": "0",
      "lon": "0",
      "city": "true"
    },
    {
      "id": "122",
      "code": "BZN",
      "name": "Gallatin Field",
      "cityCode": "BZN",
      "cityName": "Bozeman",
      "countryName": "UNITED STATES",
      "countryCode": "US",
      "timezone": "-7",
      "lat": "45.777643",
      "lon": "-111.16015",
      "city": "true"
    },
    {
      "id": "123",
      "code": "BZO",
      "name": "Bolzano Arpt",
      "cityCode": "BZO",
      "cityName": "Bolzano",
      "countryName": "ITALY",
      "countryCode": "IT",
      "timezone": "1",
      "lat": "46.460194",
      "lon": "11.326383",
      "city": "true"
    },
    {
      "id": "124",
      "code": "BZR",
      "name": "Beziers Vias Arpt",
      "cityCode": "BZR",
      "cityName": "Beziers",
      "countryName": "FRANCE",
      "countryCode": "FR",
      "timezone": "1",
      "lat": "43.323522",
      "lon": "3.353903",
      "city": "true"
    },
    {
      "id": "125",
      "code": "BZT",
      "name": "Brazoria County Arpt",
      "cityCode": "BZT",
      "cityName": "Brazoria",
      "countryName": "UNITED STATES",
      "countryCode": "US",
      "timezone": "-6",
      "lat": "0",
      "lon": "0",
      "city": "true"
    },
    {
      "id": "126",
      "code": "BZV",
      "name": "Maya Maya Arpt",
      "cityCode": "BZV",
      "cityName": "Brazzaville",
      "countryName": "REPUBLIC OF THE CONGO",
      "countryCode": "CG",
      "timezone": "1",
      "lat": "-4.2517",
      "lon": "15.253031",
      "city": "true"
    },
    {
      "id": "127",
      "code": "BZZ",
      "name": "Brize Norton Raf Station",
      "cityCode": "OXF",
      "cityName": "Oxford",
      "countryName": "UNITED KINGDOM",
      "countryCode": "GB",
      "timezone": "0",
      "lat": "51.749964",
      "lon": "-1.583617",
      "city": "false"
    },
    {
      "id": "128",
      "code": "CAC",
      "name": "Cascavel Arpt",
      "cityCode": "CAC",
      "cityName": "Cascavel",
      "countryName": "BRAZIL",
      "countryCode": "BR",
      "timezone": "-2",
      "lat": "-25.00033",
      "lon": "-53.500764",
      "city": "true"
    },
    {
      "id": "129",
      "code": "CAD",
      "name": "Wexford County Arpt",
      "cityCode": "CAD",
      "cityName": "Cadillac",
      "countryName": "UNITED STATES",
      "countryCode": "US",
      "timezone": "-5",
      "lat": "0",
      "lon": "0",
      "city": "true"
    },
    {
      "id": "130",
      "code": "CAE",
      "name": "Columbia Metro Arpt",
      "cityCode": "CAE",
      "cityName": "Columbia",
      "countryName": "UNITED STATES",
      "countryCode": "US",
      "timezone": "-5",
      "lat": "33.938833",
      "lon": "-81.119528",
      "city": "true"
    },
    {
      "id": "131",
      "code": "CAG",
      "name": "Elmas Airport",
      "cityCode": "CAG",
      "cityName": "Cagliari",
      "countryName": "ITALY",
      "countryCode": "IT",
      "timezone": "1",
      "lat": "39.251469",
      "lon": "9.054283",
      "city": "true"
    },
    {
      "id": "132",
      "code": "CAI",
      "name": "Cairo Intl Arpt",
      "cityCode": "CAI",
      "cityName": "Cairo",
      "countryName": "EGYPT",
      "countryCode": "EG",
      "timezone": "2",
      "lat": "30.121944",
      "lon": "31.405556",
      "city": "true"
    },
    {
      "id": "133",
      "code": "CAK",
      "name": "Akron Canton Regional Arpt",
      "cityCode": "CAK",
      "cityName": "Akron",
      "countryName": "UNITED STATES",
      "countryCode": "US",
      "timezone": "-5",
      "lat": "40.916083",
      "lon": "-81.442194",
      "city": "true"
    },
    {
      "id": "134",
      "code": "CAL",
      "name": "Machrihanish Arpt",
      "cityCode": "CAL",
      "cityName": "Campbelltown",
      "countryName": "UNITED KINGDOM",
      "countryCode": "GB",
      "timezone": "0",
      "lat": "55.4372",
      "lon": "-5.68639",
      "city": "true"
    },
    {
      "id": "135",
      "code": "CAM",
      "name": "Choreti Arpt",
      "cityCode": "CAM",
      "cityName": "Camiri",
      "countryName": "BOLIVIA",
      "countryCode": "BO",
      "timezone": "-4",
      "lat": "0",
      "lon": "0",
      "city": "true"
    },
    {
      "id": "136",
      "code": "CAN",
      "name": "Baiyun Airport",
      "cityCode": "CAN",
      "cityName": "Guangzhou",
      "countryName": "CHINA",
      "countryCode": "CN",
      "timezone": "8",
      "lat": "23.392436",
      "lon": "113.298786",
      "city": "true"
    },
    {
      "id": "137",
      "code": "CAP",
      "name": "Cap Haitien Numicipal",
      "cityCode": "CAP",
      "cityName": "Cap Haitien",
      "countryName": "HAITI",
      "countryCode": "HT",
      "timezone": "-5",
      "lat": "19.732989",
      "lon": "-72.194739",
      "city": "true"
    },
    {
      "id": "138",
      "code": "CAR",
      "name": "Caribou Municipal Arpt",
      "cityCode": "CAR",
      "cityName": "Caribou",
      "countryName": "UNITED STATES",
      "countryCode": "US",
      "timezone": "-5",
      "lat": "46.8715",
      "lon": "-68.017917",
      "city": "true"
    },
    {
      "id": "139",
      "code": "CAS",
      "name": "Anfa Airport",
      "cityCode": "CAS",
      "cityName": "Casablanca",
      "countryName": "MOROCCO",
      "countryCode": "MA",
      "timezone": "0",
      "lat": "33.5533",
      "lon": "-7.6614",
      "city": "true"
    },
    {
      "id": "140",
      "code": "CAU",
      "name": "Caruaru Arpt",
      "cityCode": "CAU",
      "cityName": "Caruaru",
      "countryName": "BRAZIL",
      "countryCode": "BR",
      "timezone": "-3",
      "lat": "-8.28239",
      "lon": "-36.0135",
      "city": "true"
    },
    {
      "id": "141",
      "code": "CAW",
      "name": "Bartolomeu Lisandro Arpt",
      "cityCode": "CAW",
      "cityName": "Campos",
      "countryName": "BRAZIL",
      "countryCode": "BR",
      "timezone": "-2",
      "lat": "-21.69833",
      "lon": "-41.301669",
      "city": "true"
    },
    {
      "id": "142",
      "code": "CAX",
      "name": "Carlisle Arpt",
      "cityCode": "CAX",
      "cityName": "Carlisle",
      "countryName": "UNITED KINGDOM",
      "countryCode": "GB",
      "timezone": "0",
      "lat": "54.9375",
      "lon": "-2.809167",
      "city": "true"
    },
    {
      "id": "143",
      "code": "CAY",
      "name": "Rochambeau Airport",
      "cityCode": "CAY",
      "cityName": "Cayenne",
      "countryName": "FRENCH GUIANA",
      "countryCode": "GF",
      "timezone": "-3",
      "lat": "4.819808",
      "lon": "-52.360447",
      "city": "true"
    },
    {
      "id": "144",
      "code": "CAZ",
      "name": "Cobar Arpt",
      "cityCode": "CAZ",
      "cityName": "Cobar",
      "countryName": "AUSTRALIA",
      "countryCode": "AU",
      "timezone": "11",
      "lat": "-31.5383",
      "lon": "145.794",
      "city": "true"
    },
    {
      "id": "145",
      "code": "CBB",
      "name": "J Wilsterman Arpt",
      "cityCode": "CBB",
      "cityName": "Cochabamba",
      "countryName": "BOLIVIA",
      "countryCode": "BO",
      "timezone": "-4",
      "lat": "-17.42105",
      "lon": "-66.177114",
      "city": "true"
    },
    {
      "id": "146",
      "code": "CBE",
      "name": "Cumberland Municipal Arpt",
      "cityCode": "CBE",
      "cityName": "Cumberland",
      "countryName": "UNITED STATES",
      "countryCode": "US",
      "timezone": "-5",
      "lat": "0",
      "lon": "0",
      "city": "true"
    },
    {
      "id": "147",
      "code": "CBF",
      "name": "Council Bluffs Municipal Arpt",
      "cityCode": "CBF",
      "cityName": "Council Bluffs",
      "countryName": "UNITED STATES",
      "countryCode": "US",
      "timezone": "-6",
      "lat": "0",
      "lon": "0",
      "city": "true"
    },
    {
      "id": "148",
      "code": "CBG",
      "name": "Cambridge Arpt",
      "cityCode": "CBG",
      "cityName": "Cambridge",
      "countryName": "UNITED KINGDOM",
      "countryCode": "GB",
      "timezone": "0",
      "lat": "52.205",
      "lon": "0.175",
      "city": "true"
    },
    {
      "id": "149",
      "code": "CBL",
      "name": "Ciudad Bolivar Arpt",
      "cityCode": "CBL",
      "cityName": "Ciudad Bolivar",
      "countryName": "VENEZUELA",
      "countryCode": "VE",
      "timezone": "-4",
      "lat": "8.121898",
      "lon": "-63.537353",
      "city": "true"
    },
    {
      "id": "150",
      "code": "CBN",
      "name": "Penggung Arpt",
      "cityCode": "CBN",
      "cityName": "Cirebon",
      "countryName": "INDONESIA",
      "countryCode": "ID",
      "timezone": "7",
      "lat": "-6.756144",
      "lon": "108.539672",
      "city": "true"
    },
    {
      "id": "151",
      "code": "CBP",
      "name": "Coimbra Arpt",
      "cityCode": "CBP",
      "cityName": "Coimbra",
      "countryName": "PORTUGAL",
      "countryCode": "PT",
      "timezone": "0",
      "lat": "0",
      "lon": "0",
      "city": "true"
    },
    {
      "id": "152",
      "code": "CBR",
      "name": "Canberra Arpt",
      "cityCode": "CBR",
      "cityName": "Canberra",
      "countryName": "AUSTRALIA",
      "countryCode": "AU",
      "timezone": "11",
      "lat": "-35.30694",
      "lon": "149.195",
      "city": "true"
    },
    {
      "id": "153",
      "code": "CBS",
      "name": "Oro Negro Arpt",
      "cityCode": "CBS",
      "cityName": "Cabimas",
      "countryName": "VENEZUELA",
      "countryCode": "VE",
      "timezone": "-4",
      "lat": "0",
      "lon": "0",
      "city": "true"
    },
    {
      "id": "154",
      "code": "CCE",
      "name": "Grand Case Arpt",
      "cityCode": "CCE",
      "cityName": "Saint Martin",
      "countryName": "GUADELOUPE",
      "countryCode": "GP",
      "timezone": "-100",
      "lat": "18.1006",
      "lon": "-63.0489",
      "city": "true"
    },
    {
      "id": "155",
      "code": "CCF",
      "name": "Salvaza",
      "cityCode": "CCF",
      "cityName": "Carcassonne",
      "countryName": "FRANCE",
      "countryCode": "FR",
      "timezone": "1",
      "lat": "43.215978",
      "lon": "2.306317",
      "city": "true"
    },
    {
      "id": "156",
      "code": "CCJ",
      "name": "Kozhikode Arpt",
      "cityCode": "CCJ",
      "cityName": "Kozhikode",
      "countryName": "INDIA",
      "countryCode": "IN",
      "timezone": "5",
      "lat": "11.136839",
      "lon": "75.9553",
      "city": "true"
    },
    {
      "id": "157",
      "code": "CCK",
      "name": "Cocos Islands Arpt",
      "cityCode": "CCK",
      "cityName": "Cocos Islands",
      "countryName": "COCOS (KEELING) ISLANDS",
      "countryCode": "CC",
      "timezone": "6",
      "lat": "-12.1883",
      "lon": "96.8339",
      "city": "true"
    },
    {
      "id": "158",
      "code": "CCP",
      "name": "Carriel Sur Arpt",
      "cityCode": "CCP",
      "cityName": "Concepcion",
      "countryName": "CHILE",
      "countryCode": "CL",
      "timezone": "-3",
      "lat": "-36.77265",
      "lon": "-73.063106",
      "city": "true"
    },
    {
      "id": "159",
      "code": "CCR",
      "name": "Buchanan Field",
      "cityCode": "CCR",
      "cityName": "Concord",
      "countryName": "UNITED STATES",
      "countryCode": "US",
      "timezone": "-8",
      "lat": "37.989667",
      "lon": "-122.05688",
      "city": "true"
    },
    {
      "id": "160",
      "code": "CCS",
      "name": "Simon Bolivar Arpt",
      "cityCode": "CCS",
      "cityName": "Caracas",
      "countryName": "VENEZUELA",
      "countryCode": "VE",
      "timezone": "-4",
      "lat": "10.603117",
      "lon": "-66.990583",
      "city": "true"
    },
    {
      "id": "161",
      "code": "CCV",
      "name": "Craig Cove Arpt",
      "cityCode": "CCV",
      "cityName": "Craig Cove",
      "countryName": "VANUATU",
      "countryCode": "VU",
      "timezone": "11",
      "lat": "-16.265",
      "lon": "167.924",
      "city": "true"
    },
    {
      "id": "162",
      "code": "CDA",
      "name": "Cooinda Airport",
      "cityCode": "CDA",
      "cityName": "Cooinda",
      "countryName": "AUSTRALIA",
      "countryCode": "AU",
      "timezone": "9",
      "lat": "-12.9033",
      "lon": "132.532",
      "city": "true"
    },
    {
      "id": "163",
      "code": "CDC",
      "name": "Cedar City Municipal",
      "cityCode": "CDC",
      "cityName": "Cedar City",
      "countryName": "UNITED STATES",
      "countryCode": "US",
      "timezone": "-7",
      "lat": "37.700967",
      "lon": "-113.09884",
      "city": "true"
    },
    {
      "id": "164",
      "code": "CDD",
      "name": "Cauquira Arpt",
      "cityCode": "CDD",
      "cityName": "Cauquira",
      "countryName": "HONDURAS",
      "countryCode": "HN",
      "timezone": "-6",
      "lat": "0",
      "lon": "0",
      "city": "true"
    },
    {
      "id": "165",
      "code": "CDH",
      "name": "Harrell Fieldsandro Arpt",
      "cityCode": "CDH",
      "cityName": "Camden",
      "countryName": "UNITED STATES",
      "countryCode": "US",
      "timezone": "-6",
      "lat": "33.6233",
      "lon": "-92.7633",
      "city": "true"
    },
    {
      "id": "166",
      "code": "CDI",
      "name": "Cachoeiro De Itapemirim Arpt",
      "cityCode": "CDI",
      "cityName": "Cachoeiro De Itapemirim",
      "countryName": "BRAZIL",
      "countryCode": "BR",
      "timezone": "-2",
      "lat": "39.975028",
      "lon": "-81.577583",
      "city": "true"
    },
    {
      "id": "167",
      "code": "CDR",
      "name": "Chadron Arpt",
      "cityCode": "CDR",
      "cityName": "Chadron",
      "countryName": "UNITED STATES",
      "countryCode": "US",
      "timezone": "-7",
      "lat": "42.8375",
      "lon": "-103.09555",
      "city": "true"
    },
    {
      "id": "168",
      "code": "CDW",
      "name": "Caldwell Wright Arpt",
      "cityCode": "CDW",
      "cityName": "Caldwell",
      "countryName": "UNITED STATES",
      "countryCode": "US",
      "timezone": "-5",
      "lat": "40.875222",
      "lon": "-74.281361",
      "city": "true"
    },
    {
      "id": "169",
      "code": "CEB",
      "name": "Cebu Intl",
      "cityCode": "CEB",
      "cityName": "Cebu",
      "countryName": "PHILIPPINES",
      "countryCode": "PH",
      "timezone": "8",
      "lat": "10.307542",
      "lon": "123.979439",
      "city": "true"
    },
    {
      "id": "170",
      "code": "CEC",
      "name": "Crescent City Municipal Arpt",
      "cityCode": "CEC",
      "cityName": "Crescent City",
      "countryName": "UNITED STATES",
      "countryCode": "US",
      "timezone": "-8",
      "lat": "41.7802",
      "lon": "-124.237",
      "city": "true"
    },
    {
      "id": "171",
      "code": "CED",
      "name": "Ceduna Arpt",
      "cityCode": "CED",
      "cityName": "Ceduna",
      "countryName": "AUSTRALIA",
      "countryCode": "AU",
      "timezone": "10",
      "lat": "-32.1306",
      "lon": "133.71",
      "city": "true"
    },
    {
      "id": "172",
      "code": "CEG",
      "name": "Chester Arpt",
      "cityCode": "CEG",
      "cityName": "Chester",
      "countryName": "UNITED KINGDOM",
      "countryCode": "GB",
      "timezone": "0",
      "lat": "53.178056",
      "lon": "-2.977778",
      "city": "true"
    },
    {
      "id": "173",
      "code": "CEH",
      "name": "Chelinda Arpt",
      "cityCode": "CEH",
      "cityName": "Chelinda",
      "countryName": "MALAWI",
      "countryCode": "MW",
      "timezone": "2",
      "lat": "0",
      "lon": "0",
      "city": "true"
    },
    {
      "id": "174",
      "code": "CEI",
      "name": "Chaing Rai Arpt",
      "cityCode": "CEI",
      "cityName": "Chiang Rai",
      "countryName": "THAILAND",
      "countryCode": "TH",
      "timezone": "7",
      "lat": "19.952342",
      "lon": "99.882928",
      "city": "true"
    },
    {
      "id": "175",
      "code": "CEN",
      "name": "Ciudad Obregon Arpt",
      "cityCode": "CEN",
      "cityName": "Ciudad Obregon",
      "countryName": "MEXICO",
      "countryCode": "MX",
      "timezone": "-7",
      "lat": "27.392639",
      "lon": "-109.83311",
      "city": "true"
    },
    {
      "id": "176",
      "code": "CEQ",
      "name": "Mandelieu Arpt",
      "cityCode": "CEQ",
      "cityName": "Cannes",
      "countryName": "FRANCE",
      "countryCode": "FR",
      "timezone": "1",
      "lat": "43.54205",
      "lon": "6.953478",
      "city": "true"
    },
    {
      "id": "177",
      "code": "CER",
      "name": "Maupertius Arpt",
      "cityCode": "CER",
      "cityName": "Cherbourg",
      "countryName": "FRANCE",
      "countryCode": "FR",
      "timezone": "1",
      "lat": "49.650106",
      "lon": "-1.470281",
      "city": "true"
    },
    {
      "id": "178",
      "code": "CES",
      "name": "Cessnock Arpt",
      "cityCode": "CES",
      "cityName": "Cessnock",
      "countryName": "AUSTRALIA",
      "countryCode": "AU",
      "timezone": "11",
      "lat": "-32.7875",
      "lon": "151.342",
      "city": "true"
    },
    {
      "id": "179",
      "code": "CEU",
      "name": "Clemson Oconee Cty Arpt",
      "cityCode": "CEU",
      "cityName": "Clemson",
      "countryName": "UNITED STATES",
      "countryCode": "US",
      "timezone": "-5",
      "lat": "0",
      "lon": "0",
      "city": "true"
    },
    {
      "id": "180",
      "code": "CEY",
      "name": "Calloway Cty Arpt",
      "cityCode": "CEY",
      "cityName": "Murray",
      "countryName": "UNITED STATES",
      "countryCode": "US",
      "timezone": "-6",
      "lat": "0",
      "lon": "0",
      "city": "true"
    },
    {
      "id": "181",
      "code": "CEZ",
      "name": "Montezuma County",
      "cityCode": "CEZ",
      "cityName": "Cortez",
      "countryName": "UNITED STATES",
      "countryCode": "US",
      "timezone": "-7",
      "lat": "37.303",
      "lon": "-108.62805",
      "city": "true"
    },
    {
      "id": "182",
      "code": "CFB",
      "name": "Cabo Frio Arpt",
      "cityCode": "CFB",
      "cityName": "Cabo Frio",
      "countryName": "BRAZIL",
      "countryCode": "BR",
      "timezone": "-2",
      "lat": "-22.92166",
      "lon": "-42.074167",
      "city": "true"
    },
    {
      "id": "183",
      "code": "CFE",
      "name": "Aulnat Arpt",
      "cityCode": "CFE",
      "cityName": "Clermont  Ferrand",
      "countryName": "FRANCE",
      "countryCode": "FR",
      "timezone": "1",
      "lat": "45.786661",
      "lon": "3.169169",
      "city": "true"
    },
    {
      "id": "184",
      "code": "CFG",
      "name": "Cienfuegos Arpt",
      "cityCode": "CFG",
      "cityName": "Cienfuegos",
      "countryName": "CUBA",
      "countryCode": "CU",
      "timezone": "-5",
      "lat": "22.15",
      "lon": "-80.414167",
      "city": "true"
    },
    {
      "id": "185",
      "code": "CFK",
      "name": "Chlef Arpt",
      "cityCode": "CFK",
      "cityName": "Chlef",
      "countryName": "ALGERIA",
      "countryCode": "DZ",
      "timezone": "1",
      "lat": "36.21",
      "lon": "1.33",
      "city": "true"
    },
    {
      "id": "186",
      "code": "CFN",
      "name": "Donegal Arpt",
      "cityCode": "CFN",
      "cityName": "Donegal",
      "countryName": "IRELAND",
      "countryCode": "IE",
      "timezone": "0",
      "lat": "55.044192",
      "lon": "-8.341",
      "city": "true"
    },
    {
      "id": "187",
      "code": "CFQ",
      "name": "Creston Arpt",
      "cityCode": "CFQ",
      "cityName": "Creston",
      "countryName": "CANADA",
      "countryCode": "CA",
      "timezone": "-8",
      "lat": "0",
      "lon": "0",
      "city": "true"
    },
    {
      "id": "188",
      "code": "CFR",
      "name": "Carpiquet Arpt",
      "cityCode": "CFR",
      "cityName": "Caen",
      "countryName": "FRANCE",
      "countryCode": "FR",
      "timezone": "1",
      "lat": "49.173333",
      "lon": "-0.45",
      "city": "true"
    },
    {
      "id": "189",
      "code": "CFS",
      "name": "Coffs Harbour Arpt",
      "cityCode": "CFS",
      "cityName": "Coffs Harbour",
      "countryName": "AUSTRALIA",
      "countryCode": "AU",
      "timezone": "11",
      "lat": "-30.32055",
      "lon": "153.116389",
      "city": "true"
    },
    {
      "id": "190",
      "code": "CFU",
      "name": "I Kapodistrias Arpt",
      "cityCode": "CFU",
      "cityName": "Kerkyra",
      "countryName": "GREECE",
      "countryCode": "GR",
      "timezone": "2",
      "lat": "39.601944",
      "lon": "19.911667",
      "city": "true"
    },
    {
      "id": "191",
      "code": "CGB",
      "name": "Marechal Rondon Arpt",
      "cityCode": "CGB",
      "cityName": "Cuiaba",
      "countryName": "BRAZIL",
      "countryCode": "BR",
      "timezone": "-3",
      "lat": "-15.65293",
      "lon": "-56.116719",
      "city": "true"
    },
    {
      "id": "192",
      "code": "CGD",
      "name": "Changde Arpt",
      "cityCode": "CGD",
      "cityName": "Changde",
      "countryName": "CHINA",
      "countryCode": "CN",
      "timezone": "8",
      "lat": "28.9189",
      "lon": "111.64",
      "city": "true"
    },
    {
      "id": "193",
      "code": "CGF",
      "name": "Cuyahoga County Airport",
      "cityCode": "CLE",
      "cityName": "Cleveland",
      "countryName": "UNITED STATES",
      "countryCode": "US",
      "timezone": "-5",
      "lat": "41.565124",
      "lon": "-81.486356",
      "city": "false"
    },
    {
      "id": "194",
      "code": "CGH",
      "name": "Congonhas Arpt",
      "cityCode": "SAO",
      "cityName": "Sao Paulo",
      "countryName": "BRAZIL",
      "countryCode": "BR",
      "timezone": "-2",
      "lat": "-23.62669",
      "lon": "-46.655375",
      "city": "false"
    },
    {
      "id": "195",
      "code": "CGI",
      "name": "Cape Girardeau Municipal Arpt",
      "cityCode": "CGI",
      "cityName": "Cape Girardeau",
      "countryName": "UNITED STATES",
      "countryCode": "US",
      "timezone": "-6",
      "lat": "37.2253",
      "lon": "-89.5708",
      "city": "true"
    },
    {
      "id": "196",
      "code": "CGK",
      "name": "Soekarno Hatta Intl",
      "cityCode": "JKT",
      "cityName": "Jakarta",
      "countryName": "INDONESIA",
      "countryCode": "ID",
      "timezone": "7",
      "lat": "-6.125567",
      "lon": "106.655897",
      "city": "false"
    },
    {
      "id": "197",
      "code": "CGN",
      "name": "Koeln Bonn Arpt",
      "cityCode": "CGN",
      "cityName": "Cologne",
      "countryName": "GERMANY",
      "countryCode": "DE",
      "timezone": "1",
      "lat": "50.865917",
      "lon": "7.142744",
      "city": "true"
    },
    {
      "id": "198",
      "code": "CGO",
      "name": "Zhengzhou Arpt",
      "cityCode": "CGO",
      "cityName": "Zhengzhou",
      "countryName": "CHINA",
      "countryCode": "CN",
      "timezone": "8",
      "lat": "34.519672",
      "lon": "113.840889",
      "city": "true"
    },
    {
      "id": "199",
      "code": "CGP",
      "name": "Patenga Arpt",
      "cityCode": "CGP",
      "cityName": "Chittagong",
      "countryName": "BANGLADESH",
      "countryCode": "BD",
      "timezone": "7",
      "lat": "22.249611",
      "lon": "91.813286",
      "city": "true"
    },
    {
      "id": "200",
      "code": "CGQ",
      "name": "Changchun Arpt",
      "cityCode": "CGQ",
      "cityName": "Changchun",
      "countryName": "CHINA",
      "countryCode": "CN",
      "timezone": "8",
      "lat": "43.5412",
      "lon": "125.1201",
      "city": "true"
    },
    {
      "id": "201",
      "code": "CGR",
      "name": "Internacional",
      "cityCode": "CGR",
      "cityName": "Campogrande",
      "countryName": "BRAZIL",
      "countryCode": "BR",
      "timezone": "-3",
      "lat": "-20.46866",
      "lon": "-54.6725",
      "city": "true"
    },
    {
      "id": "202",
      "code": "CGY",
      "name": "Lumbia Arpt",
      "cityCode": "CGY",
      "cityName": "Cagayan",
      "countryName": "PHILIPPINES",
      "countryCode": "PH",
      "timezone": "8",
      "lat": "8.415619",
      "lon": "124.611219",
      "city": "true"
    },
    {
      "id": "203",
      "code": "CHA",
      "name": "Chattanooga Lovell Fld",
      "cityCode": "CHA",
      "cityName": "Chattanooga",
      "countryName": "UNITED STATES",
      "countryCode": "US",
      "timezone": "-5",
      "lat": "35.035278",
      "lon": "-85.203808",
      "city": "true"
    },
    {
      "id": "204",
      "code": "CHC",
      "name": "Christchurch Arpt",
      "cityCode": "CHC",
      "cityName": "Christchurch",
      "countryName": "NEW ZEALAND",
      "countryCode": "NZ",
      "timezone": "13",
      "lat": "-43.48935",
      "lon": "172.532225",
      "city": "true"
    },
    {
      "id": "205",
      "code": "CHD",
      "name": "Williams AFB Airport",
      "cityCode": "CHD",
      "cityName": "Chandler",
      "countryName": "UNITED STATES",
      "countryCode": "US",
      "timezone": "-100",
      "lat": "0",
      "lon": "0",
      "city": "true"
    },
    {
      "id": "206",
      "code": "CHO",
      "name": "Charlottesville Albemarle Arpt",
      "cityCode": "CHO",
      "cityName": "Charlottesville",
      "countryName": "UNITED STATES",
      "countryCode": "US",
      "timezone": "-5",
      "lat": "38.138639",
      "lon": "-78.452861",
      "city": "true"
    },
    {
      "id": "207",
      "code": "CHQ",
      "name": "Souda Arpt",
      "cityCode": "CHQ",
      "cityName": "Chania",
      "countryName": "GREECE",
      "countryCode": "GR",
      "timezone": "2",
      "lat": "35.531747",
      "lon": "24.149678",
      "city": "true"
    },
    {
      "id": "208",
      "code": "CHR",
      "name": "Chateauroux Arpt",
      "cityCode": "CHR",
      "cityName": "Chateauroux",
      "countryName": "FRANCE",
      "countryCode": "FR",
      "timezone": "1",
      "lat": "46.862194",
      "lon": "1.730667",
      "city": "true"
    },
    {
      "id": "209",
      "code": "CHS",
      "name": "Charleston Intl Arpt",
      "cityCode": "CHS",
      "cityName": "Charleston",
      "countryName": "UNITED STATES",
      "countryCode": "US",
      "timezone": "-5",
      "lat": "32.898647",
      "lon": "-80.040528",
      "city": "true"
    },
    {
      "id": "210",
      "code": "CHW",
      "name": "Jiuquan Arpt",
      "cityCode": "CHW",
      "cityName": "Jiuquan",
      "countryName": "CHINA",
      "countryCode": "CN",
      "timezone": "8",
      "lat": "0",
      "lon": "0",
      "city": "true"
    },
    {
      "id": "211",
      "code": "CHX",
      "name": "Changuinola Arpt",
      "cityCode": "CHX",
      "cityName": "Changuinola",
      "countryName": "PANAMA",
      "countryCode": "PA",
      "timezone": "-5",
      "lat": "9.458636",
      "lon": "-82.516806",
      "city": "true"
    },
    {
      "id": "212",
      "code": "CIA",
      "name": "Ciampino Arpt",
      "cityCode": "ROM",
      "cityName": "Rome",
      "countryName": "ITALY",
      "countryCode": "IT",
      "timezone": "1",
      "lat": "41.799361",
      "lon": "12.594936",
      "city": "false"
    },
    {
      "id": "213",
      "code": "CIC",
      "name": "Chico Municipal Arpt",
      "cityCode": "CIC",
      "cityName": "Chico",
      "countryName": "UNITED STATES",
      "countryCode": "US",
      "timezone": "-8",
      "lat": "39.795383",
      "lon": "-121.85842",
      "city": "true"
    },
    {
      "id": "214",
      "code": "CIG",
      "name": "Craig Moffat",
      "cityCode": "CIG",
      "cityName": "Craig",
      "countryName": "UNITED STATES",
      "countryCode": "US",
      "timezone": "-7",
      "lat": "40.495",
      "lon": "-107.5214",
      "city": "true"
    },
    {
      "id": "215",
      "code": "CIL",
      "name": "Melsing Creek Arpt",
      "cityCode": "CIL",
      "cityName": "Council",
      "countryName": "UNITED STATES",
      "countryCode": "US",
      "timezone": "-9",
      "lat": "64.897778",
      "lon": "-163.70333",
      "city": "true"
    },
    {
      "id": "216",
      "code": "CIO",
      "name": "Mcal Lopez Arpt",
      "cityCode": "CIO",
      "cityName": "Concepcion",
      "countryName": "PARAGUAY",
      "countryCode": "PY",
      "timezone": "-3",
      "lat": "45.4715",
      "lon": "21.1136",
      "city": "true"
    },
    {
      "id": "217",
      "code": "CIU",
      "name": "Chippewa Cnty Intl",
      "cityCode": "SSM",
      "cityName": "Sault Ste Marie",
      "countryName": "UNITED STATES",
      "countryCode": "US",
      "timezone": "-5",
      "lat": "46.2508",
      "lon": "-84.4724",
      "city": "false"
    },
    {
      "id": "218",
      "code": "CIW",
      "name": "Canouan Island Minicipal",
      "cityCode": "CIW",
      "cityName": "Canovan Island",
      "countryName": "DOMINICA",
      "countryCode": "DM",
      "timezone": "-4",
      "lat": "12.699042",
      "lon": "-61.342431",
      "city": "true"
    },
    {
      "id": "219",
      "code": "CIX",
      "name": "Cornel Ruiz Arpt",
      "cityCode": "CIX",
      "cityName": "Chiclayo",
      "countryName": "PERU",
      "countryCode": "PE",
      "timezone": "-5",
      "lat": "-6.787475",
      "lon": "-79.828097",
      "city": "true"
    },
    {
      "id": "220",
      "code": "CIY",
      "name": "Comiso Arpt",
      "cityCode": "CIY",
      "cityName": "Comiso",
      "countryName": "ITALY",
      "countryCode": "IT",
      "timezone": "1",
      "lat": "0",
      "lon": "0",
      "city": "true"
    },
    {
      "id": "221",
      "code": "CJC",
      "name": "El Loa Arpt",
      "cityCode": "CJC",
      "cityName": "Calama",
      "countryName": "CHILE",
      "countryCode": "CL",
      "timezone": "-3",
      "lat": "-22.49817",
      "lon": "-68.903575",
      "city": "true"
    },
    {
      "id": "222",
      "code": "CJI",
      "name": "Ciudad Real City Arpt",
      "cityCode": "CJI",
      "cityName": "Ciudad Real City",
      "countryName": "SPAIN",
      "countryCode": "ES",
      "timezone": "-100",
      "lat": "0",
      "lon": "0",
      "city": "true"
    },
    {
      "id": "223",
      "code": "CJJ",
      "name": "Cheongju Arpt",
      "cityCode": "CJJ",
      "cityName": "Cheongju",
      "countryName": "KOREA, REPUBLIC OF",
      "countryCode": "KR",
      "timezone": "9",
      "lat": "36.7166",
      "lon": "127.499119",
      "city": "true"
    },
    {
      "id": "224",
      "code": "CJM",
      "name": "Chumphon Arpt",
      "cityCode": "CJM",
      "cityName": "Chumphon",
      "countryName": "THAILAND",
      "countryCode": "TH",
      "timezone": "7",
      "lat": "10.7112",
      "lon": "99.361706",
      "city": "true"
    },
    {
      "id": "225",
      "code": "CJN",
      "name": "El Cajon Arpt",
      "cityCode": "CJN",
      "cityName": "El Cajon",
      "countryName": "UNITED STATES",
      "countryCode": "US",
      "timezone": "-100",
      "lat": "0",
      "lon": "0",
      "city": "true"
    },
    {
      "id": "226",
      "code": "CJU",
      "name": "Jeju Intl Arpt",
      "cityCode": "CJU",
      "cityName": "Jeju City",
      "countryName": "KOREA, REPUBLIC OF",
      "countryCode": "KR",
      "timezone": "9",
      "lat": "33.511306",
      "lon": "126.493028",
      "city": "true"
    },
    {
      "id": "227",
      "code": "CKB",
      "name": "Clarksburg Benedum Arpt",
      "cityCode": "CKB",
      "cityName": "Clarksburg",
      "countryName": "UNITED STATES",
      "countryCode": "US",
      "timezone": "-5",
      "lat": "39.2966",
      "lon": "-80.2281",
      "city": "true"
    },
    {
      "id": "228",
      "code": "CKG",
      "name": "Chongqing Arpt",
      "cityCode": "CKG",
      "cityName": "Chongqing",
      "countryName": "CHINA",
      "countryCode": "CN",
      "timezone": "8",
      "lat": "29.719217",
      "lon": "106.641678",
      "city": "true"
    },
    {
      "id": "229",
      "code": "CKM",
      "name": "Fletcher Field",
      "cityCode": "CKM",
      "cityName": "Clarksdale",
      "countryName": "UNITED STATES",
      "countryCode": "US",
      "timezone": "-6",
      "lat": "0",
      "lon": "0",
      "city": "true"
    },
    {
      "id": "230",
      "code": "CKV",
      "name": "Outlaw Field",
      "cityCode": "CKV",
      "cityName": "Clarksville",
      "countryName": "UNITED STATES",
      "countryCode": "US",
      "timezone": "-6",
      "lat": "0",
      "lon": "0",
      "city": "true"
    },
    {
      "id": "231",
      "code": "CKY",
      "name": "Conakry Airport",
      "cityCode": "CKY",
      "cityName": "Conakry",
      "countryName": "GUINEA",
      "countryCode": "GN",
      "timezone": "0",
      "lat": "9.576889",
      "lon": "-13.611961",
      "city": "true"
    },
    {
      "id": "232",
      "code": "CKZ",
      "name": "Canakkale Arpt",
      "cityCode": "CKZ",
      "cityName": "Canakkale",
      "countryName": "TURKEY",
      "countryCode": "TR",
      "timezone": "2",
      "lat": "40.137722",
      "lon": "26.426777",
      "city": "true"
    },
    {
      "id": "233",
      "code": "CLC",
      "name": "Metroport",
      "cityCode": "CLC",
      "cityName": "Clear Lake City",
      "countryName": "UNITED STATES",
      "countryCode": "US",
      "timezone": "-100",
      "lat": "0",
      "lon": "0",
      "city": "true"
    },
    {
      "id": "234",
      "code": "CLE",
      "name": "Hopkins Intl Arpt",
      "cityCode": "CLE",
      "cityName": "Cleveland",
      "countryName": "UNITED STATES",
      "countryCode": "US",
      "timezone": "-5",
      "lat": "41.411689",
      "lon": "-81.849794",
      "city": "true"
    },
    {
      "id": "235",
      "code": "CLJ",
      "name": "Napoca Arpt",
      "cityCode": "CLJ",
      "cityName": "Cluj",
      "countryName": "ROMANIA",
      "countryCode": "RO",
      "timezone": "2",
      "lat": "46.785167",
      "lon": "23.686167",
      "city": "true"
    },
    {
      "id": "236",
      "code": "CLK",
      "name": "Clinton Municipal Arpt",
      "cityCode": "CSM",
      "cityName": "Clinton",
      "countryName": "UNITED STATES",
      "countryCode": "US",
      "timezone": "-6",
      "lat": "0",
      "lon": "0",
      "city": "false"
    },
    {
      "id": "237",
      "code": "CLM",
      "name": "William Fairchild Intl Arpt",
      "cityCode": "CLM",
      "cityName": "Port Angeles",
      "countryName": "UNITED STATES",
      "countryCode": "US",
      "timezone": "-8",
      "lat": "48.1202",
      "lon": "-123.5",
      "city": "true"
    },
    {
      "id": "238",
      "code": "CLO",
      "name": "Alfonso Bonella Aragon Arpt",
      "cityCode": "CLO",
      "cityName": "Cali",
      "countryName": "COLOMBIA",
      "countryCode": "CO",
      "timezone": "-5",
      "lat": "3.543222",
      "lon": "-76.381583",
      "city": "true"
    },
    {
      "id": "239",
      "code": "CLQ",
      "name": "Colima Arpt",
      "cityCode": "CLQ",
      "cityName": "Colima",
      "countryName": "MEXICO",
      "countryCode": "MX",
      "timezone": "-6",
      "lat": "19.277011",
      "lon": "-103.57739",
      "city": "true"
    },
    {
      "id": "240",
      "code": "CLU",
      "name": "Columbus Municipal Arpt",
      "cityCode": "CLU",
      "cityName": "Columbus",
      "countryName": "UNITED STATES",
      "countryCode": "US",
      "timezone": "-5",
      "lat": "39.2617",
      "lon": "-85.8967",
      "city": "true"
    },
    {
      "id": "241",
      "code": "CLW",
      "name": "Clearwater Executive Airpark",
      "cityCode": "CLW",
      "cityName": "Clearwater",
      "countryName": "UNITED STATES",
      "countryCode": "US",
      "timezone": "-5",
      "lat": "0",
      "lon": "0",
      "city": "true"
    },
    {
      "id": "242",
      "code": "CLY",
      "name": "Ste Catherine Arpt",
      "cityCode": "CLY",
      "cityName": "Calvi",
      "countryName": "FRANCE",
      "countryCode": "FR",
      "timezone": "1",
      "lat": "42.530753",
      "lon": "8.793189",
      "city": "true"
    },
    {
      "id": "243",
      "code": "CMB",
      "name": "Bandaranaike Intl Arpt",
      "cityCode": "CMB",
      "cityName": "Colombo",
      "countryName": "SRI LANKA",
      "countryCode": "LK",
      "timezone": "5",
      "lat": "7.180756",
      "lon": "79.884117",
      "city": "true"
    },
    {
      "id": "244",
      "code": "CME",
      "name": "Ciudad Del Carmen Arpt",
      "cityCode": "CME",
      "cityName": "Ciudad Del Carmen",
      "countryName": "MEXICO",
      "countryCode": "MX",
      "timezone": "-6",
      "lat": "18.653739",
      "lon": "-91.799017",
      "city": "true"
    },
    {
      "id": "245",
      "code": "CMF",
      "name": "Chambery Aix Les Bains Arpt",
      "cityCode": "CMF",
      "cityName": "Chambery",
      "countryName": "FRANCE",
      "countryCode": "FR",
      "timezone": "1",
      "lat": "45.63805",
      "lon": "5.880225",
      "city": "true"
    },
    {
      "id": "246",
      "code": "CMG",
      "name": "Internacional Corumba",
      "cityCode": "CMG",
      "cityName": "Corumba",
      "countryName": "BRAZIL",
      "countryCode": "BR",
      "timezone": "-3",
      "lat": "-19.01193",
      "lon": "-57.673053",
      "city": "true"
    },
    {
      "id": "247",
      "code": "CMH",
      "name": "Port Columbus Intl Arpt",
      "cityCode": "CMH",
      "cityName": "Columbus",
      "countryName": "UNITED STATES",
      "countryCode": "US",
      "timezone": "-5",
      "lat": "39.997972",
      "lon": "-82.891889",
      "city": "true"
    },
    {
      "id": "248",
      "code": "CMI",
      "name": "Univ Of Illinois Willard Arpt",
      "cityCode": "CMI",
      "cityName": "Champaign",
      "countryName": "UNITED STATES",
      "countryCode": "US",
      "timezone": "-6",
      "lat": "40.03925",
      "lon": "-88.278056",
      "city": "true"
    },
    {
      "id": "249",
      "code": "CMN",
      "name": "Mohamed V Arpt",
      "cityCode": "CAS",
      "cityName": "Casablanca",
      "countryName": "MOROCCO",
      "countryCode": "MA",
      "timezone": "0",
      "lat": "33.367467",
      "lon": "-7.589967",
      "city": "false"
    },
    {
      "id": "250",
      "code": "CMQ",
      "name": "Clermont Arpt",
      "cityCode": "CMQ",
      "cityName": "Clermont",
      "countryName": "AUSTRALIA",
      "countryCode": "AU",
      "timezone": "10",
      "lat": "-22.7694",
      "lon": "147.6194",
      "city": "true"
    },
    {
      "id": "251",
      "code": "CMR",
      "name": "Colmar Houssen Arpt",
      "cityCode": "CMR",
      "cityName": "Colmar",
      "countryName": "FRANCE",
      "countryCode": "FR",
      "timezone": "1",
      "lat": "48.109853",
      "lon": "7.359011",
      "city": "true"
    },
    {
      "id": "252",
      "code": "CMV",
      "name": "Coromandel Arpt",
      "cityCode": "CMV",
      "cityName": "Coromandel",
      "countryName": "NEW ZEALAND",
      "countryCode": "NZ",
      "timezone": "13",
      "lat": "0",
      "lon": "0",
      "city": "true"
    },
    {
      "id": "253",
      "code": "CMW",
      "name": "Ign Agramonte Intl Arpt",
      "cityCode": "CMW",
      "cityName": "Camaguey",
      "countryName": "CUBA",
      "countryCode": "CU",
      "timezone": "-5",
      "lat": "21.420428",
      "lon": "-77.847433",
      "city": "true"
    },
    {
      "id": "254",
      "code": "CMX",
      "name": "Houghton Cty Memorial Arpt",
      "cityCode": "CMX",
      "cityName": "Houghton",
      "countryName": "UNITED STATES",
      "countryCode": "US",
      "timezone": "-5",
      "lat": "47.1684",
      "lon": "-88.4891",
      "city": "true"
    },
    {
      "id": "255",
      "code": "CMY",
      "name": "Camp Mccoy Aaf",
      "cityCode": "CMY",
      "cityName": "Sparta",
      "countryName": "UNITED STATES",
      "countryCode": "US",
      "timezone": "-6",
      "lat": "0",
      "lon": "0",
      "city": "true"
    },
    {
      "id": "256",
      "code": "CNB",
      "name": "Coonamble Arpt",
      "cityCode": "CNB",
      "cityName": "Coonamble",
      "countryName": "AUSTRALIA",
      "countryCode": "AU",
      "timezone": "11",
      "lat": "-30.9833",
      "lon": "148.376",
      "city": "true"
    },
    {
      "id": "257",
      "code": "CNC",
      "name": "Coconut Island Arpt",
      "cityCode": "CNC",
      "cityName": "Coconut Island",
      "countryName": "AUSTRALIA",
      "countryCode": "AU",
      "timezone": "10",
      "lat": "-10.05",
      "lon": "143.07",
      "city": "true"
    },
    {
      "id": "258",
      "code": "CND",
      "name": "Kogalniceanu Arpt",
      "cityCode": "CND",
      "cityName": "Constanta",
      "countryName": "ROMANIA",
      "countryCode": "RO",
      "timezone": "2",
      "lat": "44.362222",
      "lon": "28.488333",
      "city": "true"
    },
    {
      "id": "259",
      "code": "CNF",
      "name": "Tancredo Neves Intl Arpt",
      "cityCode": "BHZ",
      "cityName": "Belo Horizonte",
      "countryName": "BRAZIL",
      "countryCode": "BR",
      "timezone": "-2",
      "lat": "-19.63375",
      "lon": "-43.968856",
      "city": "false"
    },
    {
      "id": "260",
      "code": "CNG",
      "name": "Parvaud Arpt",
      "cityCode": "CNG",
      "cityName": "Cognac",
      "countryName": "FRANCE",
      "countryCode": "FR",
      "timezone": "1",
      "lat": "45.658333",
      "lon": "-0.3175",
      "city": "true"
    },
    {
      "id": "261",
      "code": "CNH",
      "name": "Claremont Municipal",
      "cityCode": "LEB",
      "cityName": "Lebanon",
      "countryName": "UNITED STATES",
      "countryCode": "US",
      "timezone": "-5",
      "lat": "0",
      "lon": "0",
      "city": "false"
    },
    {
      "id": "262",
      "code": "CNJ",
      "name": "Cloncurry Arpt",
      "cityCode": "CNJ",
      "cityName": "Cloncurry",
      "countryName": "AUSTRALIA",
      "countryCode": "AU",
      "timezone": "10",
      "lat": "-20.6686",
      "lon": "140.504",
      "city": "true"
    },
    {
      "id": "263",
      "code": "CNM",
      "name": "Carlsbad Airport",
      "cityCode": "CNM",
      "cityName": "Carlsbad",
      "countryName": "UNITED STATES",
      "countryCode": "US",
      "timezone": "-7",
      "lat": "32.337472",
      "lon": "-104.26327",
      "city": "true"
    },
    {
      "id": "264",
      "code": "CNQ",
      "name": "Camba Punta Arpt",
      "cityCode": "CNQ",
      "cityName": "Corrientes",
      "countryName": "ARGENTINA",
      "countryCode": "AR",
      "timezone": "-3",
      "lat": "-27.44550",
      "lon": "-58.761864",
      "city": "true"
    },
    {
      "id": "265",
      "code": "CNS",
      "name": "Cairns Airport",
      "cityCode": "CNS",
      "cityName": "Cairns",
      "countryName": "AUSTRALIA",
      "countryCode": "AU",
      "timezone": "10",
      "lat": "-16.88583",
      "lon": "145.755278",
      "city": "true"
    },
    {
      "id": "266",
      "code": "CNX",
      "name": "Chiang Mai Intl Arpt",
      "cityCode": "CNX",
      "cityName": "Chiang Mai",
      "countryName": "THAILAND",
      "countryCode": "TH",
      "timezone": "7",
      "lat": "18.766847",
      "lon": "98.962644",
      "city": "true"
    },
    {
      "id": "267",
      "code": "CNY",
      "name": "Moab Municipal",
      "cityCode": "CNY",
      "cityName": "Moab",
      "countryName": "UNITED STATES",
      "countryCode": "US",
      "timezone": "-7",
      "lat": "38.755",
      "lon": "-109.75472",
      "city": "true"
    },
    {
      "id": "268",
      "code": "COC",
      "name": "Concordia Arpt",
      "cityCode": "COC",
      "cityName": "Concordia",
      "countryName": "ARGENTINA",
      "countryCode": "AR",
      "timezone": "-3",
      "lat": "-31.29694",
      "lon": "-57.996631",
      "city": "true"
    },
    {
      "id": "269",
      "code": "COD",
      "name": "Yellowstone Regional Arpt",
      "cityCode": "COD",
      "cityName": "Cody",
      "countryName": "UNITED STATES",
      "countryCode": "US",
      "timezone": "-7",
      "lat": "44.520194",
      "lon": "-109.02380",
      "city": "true"
    },
    {
      "id": "270",
      "code": "COE",
      "name": "Coeur d Alene Municipal Arpt",
      "cityCode": "COE",
      "cityName": "Coeur D Alene",
      "countryName": "UNITED STATES",
      "countryCode": "US",
      "timezone": "-8",
      "lat": "47.7743",
      "lon": "-116.8196",
      "city": "true"
    },
    {
      "id": "271",
      "code": "COI",
      "name": "Merrit Island Arpt",
      "cityCode": "COI",
      "cityName": "Cocoa Metro Area",
      "countryName": "UNITED STATES",
      "countryCode": "US",
      "timezone": "-5",
      "lat": "0",
      "lon": "0",
      "city": "true"
    },
    {
      "id": "272",
      "code": "COJ",
      "name": "Coonabarabran Arpt",
      "cityCode": "COJ",
      "cityName": "Coonabarabrn",
      "countryName": "AUSTRALIA",
      "countryCode": "AU",
      "timezone": "11",
      "lat": "-31.335",
      "lon": "149.27",
      "city": "true"
    },
    {
      "id": "273",
      "code": "COK",
      "name": "Kochi Intl Arpt",
      "cityCode": "COK",
      "cityName": "Kochi",
      "countryName": "INDIA",
      "countryCode": "IN",
      "timezone": "5",
      "lat": "10.155556",
      "lon": "76.391389",
      "city": "true"
    },
    {
      "id": "274",
      "code": "COO",
      "name": "Cotonou Airport",
      "cityCode": "COO",
      "cityName": "Cotonou",
      "countryName": "BENIN",
      "countryCode": "BJ",
      "timezone": "1",
      "lat": "6.357228",
      "lon": "2.384353",
      "city": "true"
    },
    {
      "id": "275",
      "code": "COR",
      "name": "Pajas Blanco Arpt",
      "cityCode": "COR",
      "cityName": "Cordoba",
      "countryName": "ARGENTINA",
      "countryCode": "AR",
      "timezone": "-3",
      "lat": "-31.32361",
      "lon": "-64.207953",
      "city": "true"
    },
    {
      "id": "276",
      "code": "COS",
      "name": "Colorado Springs Municipal Arpt",
      "cityCode": "COS",
      "cityName": "Colorado Springs",
      "countryName": "UNITED STATES",
      "countryCode": "US",
      "timezone": "-7",
      "lat": "38.805805",
      "lon": "-104.70077",
      "city": "true"
    },
    {
      "id": "277",
      "code": "CPC",
      "name": "Chapelco Arpt",
      "cityCode": "CPC",
      "cityName": "Chapelco",
      "countryName": "ARGENTINA",
      "countryCode": "AR",
      "timezone": "-3",
      "lat": "-40.07538",
      "lon": "-71.137294",
      "city": "true"
    },
    {
      "id": "278",
      "code": "CPD",
      "name": "Coober Pedy Arpt",
      "cityCode": "CPD",
      "cityName": "Coober Pedy",
      "countryName": "AUSTRALIA",
      "countryCode": "AU",
      "timezone": "10",
      "lat": "-29.04",
      "lon": "134.721",
      "city": "true"
    },
    {
      "id": "279",
      "code": "CPE",
      "name": "Campeche Intl Arpt",
      "cityCode": "CPE",
      "cityName": "Campeche",
      "countryName": "MEXICO",
      "countryCode": "MX",
      "timezone": "-6",
      "lat": "19.816794",
      "lon": "-90.500314",
      "city": "true"
    },
    {
      "id": "280",
      "code": "CPO",
      "name": "Chamonate Arpt",
      "cityCode": "CPO",
      "cityName": "Copiapo",
      "countryName": "CHILE",
      "countryCode": "CL",
      "timezone": "-3",
      "lat": "-27",
      "lon": "-70",
      "city": "true"
    },
    {
      "id": "281",
      "code": "CPQ",
      "name": "International Campinas",
      "cityCode": "CPQ",
      "cityName": "Campinas",
      "countryName": "BRAZIL",
      "countryCode": "BR",
      "timezone": "-2",
      "lat": "-22.8592",
      "lon": "-47.1082",
      "city": "true"
    },
    {
      "id": "282",
      "code": "CPR",
      "name": "Natrona Cty Intl Arpt",
      "cityCode": "CPR",
      "cityName": "Casper",
      "countryName": "UNITED STATES",
      "countryCode": "US",
      "timezone": "-7",
      "lat": "42.908",
      "lon": "-106.46441",
      "city": "true"
    },
    {
      "id": "283",
      "code": "CPT",
      "name": "Cape Town International",
      "cityCode": "CPT",
      "cityName": "Cape Town",
      "countryName": "SOUTH AFRICA",
      "countryCode": "ZA",
      "timezone": "2",
      "lat": "-33.96480",
      "lon": "18.601667",
      "city": "true"
    },
    {
      "id": "284",
      "code": "CPV",
      "name": "Joao Suassuana Arpt",
      "cityCode": "CPV",
      "cityName": "Campina Grande",
      "countryName": "BRAZIL",
      "countryCode": "BR",
      "timezone": "-3",
      "lat": "-7.269917",
      "lon": "-35.896364",
      "city": "true"
    },
    {
      "id": "285",
      "code": "CQD",
      "name": "Shahre Kord Arpt",
      "cityCode": "CQD",
      "cityName": "Shahre Kord",
      "countryName": "IRAN",
      "countryCode": "IR",
      "timezone": "3",
      "lat": "32.2972",
      "lon": "50.8422",
      "city": "true"
    },
    {
      "id": "286",
      "code": "ARY",
      "name": "Ararat Arpt",
      "cityCode": "ARY",
      "cityName": "Ararat",
      "countryName": "AUSTRALIA",
      "countryCode": "AU",
      "timezone": "11",
      "lat": "-37.3119",
      "lon": "142.9906",
      "city": "true"
    },
    {
      "id": "287",
      "code": "ASB",
      "name": "Ashgabat Arpt",
      "cityCode": "ASB",
      "cityName": "Ashgabat",
      "countryName": "TURKMENISTAN",
      "countryCode": "TM",
      "timezone": "5",
      "lat": "37.986814",
      "lon": "58.360967",
      "city": "true"
    },
    {
      "id": "288",
      "code": "ASD",
      "name": "Andros Town Arpt",
      "cityCode": "ASD",
      "cityName": "Andros Town",
      "countryName": "BAHAMAS",
      "countryCode": "BS",
      "timezone": "-5",
      "lat": "24.698283",
      "lon": "-77.795611",
      "city": "true"
    },
    {
      "id": "289",
      "code": "ASF",
      "name": "Astrakhan Arpt",
      "cityCode": "ASF",
      "cityName": "Astrakhan",
      "countryName": "RUSSIA",
      "countryCode": "RU",
      "timezone": "3",
      "lat": "46.283333",
      "lon": "48.006278",
      "city": "true"
    },
    {
      "id": "290",
      "code": "ASH",
      "name": "Boire Field Arpt",
      "cityCode": "ASH",
      "cityName": "Nashua",
      "countryName": "UNITED STATES",
      "countryCode": "US",
      "timezone": "-5",
      "lat": "42.78175",
      "lon": "-71.514778",
      "city": "true"
    },
    {
      "id": "291",
      "code": "ASJ",
      "name": "Amami O Shima Arpt",
      "cityCode": "ASJ",
      "cityName": "Amami O Shima",
      "countryName": "JAPAN",
      "countryCode": "JP",
      "timezone": "9",
      "lat": "28.430633",
      "lon": "129.712542",
      "city": "true"
    },
    {
      "id": "292",
      "code": "ASK",
      "name": "Yamoussoukro Arpt",
      "cityCode": "ASK",
      "cityName": "Yamoussouro",
      "countryName": "IVORY COAST",
      "countryCode": "CI",
      "timezone": "0",
      "lat": "6.903167",
      "lon": "-5.365581",
      "city": "true"
    },
    {
      "id": "293",
      "code": "ASM",
      "name": "Asmara Intl Arpt",
      "cityCode": "ASM",
      "cityName": "Asmara",
      "countryName": "ERITREA",
      "countryCode": "ER",
      "timezone": "3",
      "lat": "15.291853",
      "lon": "38.910667",
      "city": "true"
    },
    {
      "id": "294",
      "code": "ASN",
      "name": "Talladega Arpt",
      "cityCode": "ASN",
      "cityName": "Talladega",
      "countryName": "UNITED STATES",
      "countryCode": "US",
      "timezone": "-6",
      "lat": "0",
      "lon": "0",
      "city": "true"
    },
    {
      "id": "295",
      "code": "ASR",
      "name": "Kayseri Arpt",
      "cityCode": "ASR",
      "cityName": "Kayseri",
      "countryName": "TURKEY",
      "countryCode": "TR",
      "timezone": "2",
      "lat": "38.770386",
      "lon": "35.495428",
      "city": "true"
    },
    {
      "id": "296",
      "code": "AST",
      "name": "Astoria Arpt",
      "cityCode": "AST",
      "cityName": "Astoria",
      "countryName": "UNITED STATES",
      "countryCode": "US",
      "timezone": "-8",
      "lat": "46.157972",
      "lon": "-123.87869",
      "city": "true"
    },
    {
      "id": "297",
      "code": "ASU",
      "name": "Salvio Pettirosse Arpt",
      "cityCode": "ASU",
      "cityName": "Asuncion",
      "countryName": "PARAGUAY",
      "countryCode": "PY",
      "timezone": "-3",
      "lat": "-25.23985",
      "lon": "-57.519133",
      "city": "true"
    },
    {
      "id": "298",
      "code": "ASW",
      "name": "Daraw Arpt",
      "cityCode": "ASW",
      "cityName": "Aswan",
      "countryName": "EGYPT",
      "countryCode": "EG",
      "timezone": "2",
      "lat": "23.964356",
      "lon": "32.819975",
      "city": "true"
    },
    {
      "id": "299",
      "code": "ATC",
      "name": "Arthurs Town Arpt",
      "cityCode": "ATC",
      "cityName": "Arthurs Town",
      "countryName": "BAHAMAS",
      "countryCode": "BS",
      "timezone": "-5",
      "lat": "24.629417",
      "lon": "-75.673775",
      "city": "true"
    },
    {
      "id": "300",
      "code": "ATH",
      "name": "Eleftherios Venizelos Intl Arpt",
      "cityCode": "ATH",
      "cityName": "Athens",
      "countryName": "GREECE",
      "countryCode": "GR",
      "timezone": "2",
      "lat": "37.936358",
      "lon": "23.944467",
      "city": "true"
    },
    {
      "id": "301",
      "code": "ATL",
      "name": "Hartsfield Jackson Intl Arpt",
      "cityCode": "ATL",
      "cityName": "Atlanta",
      "countryName": "UNITED STATES",
      "countryCode": "US",
      "timezone": "-5",
      "lat": "33.636719",
      "lon": "-84.428067",
      "city": "true"
    },
    {
      "id": "302",
      "code": "ATM",
      "name": "Altamira Arpt",
      "cityCode": "ATM",
      "cityName": "Altamira",
      "countryName": "BRAZIL",
      "countryCode": "BR",
      "timezone": "-3",
      "lat": "-3.253906",
      "lon": "-52.253978",
      "city": "true"
    },
    {
      "id": "303",
      "code": "ATQ",
      "name": "Raja Sansi Arpt",
      "cityCode": "ATQ",
      "cityName": "Amritsar",
      "countryName": "INDIA",
      "countryCode": "IN",
      "timezone": "5",
      "lat": "31.709594",
      "lon": "74.797264",
      "city": "true"
    },
    {
      "id": "304",
      "code": "ATR",
      "name": "Mouakchott Arpt",
      "cityCode": "ATR",
      "cityName": "Atar",
      "countryName": "MAURITANIA",
      "countryCode": "MR",
      "timezone": "0",
      "lat": "20.506828",
      "lon": "-13.043194",
      "city": "true"
    },
    {
      "id": "305",
      "code": "ATW",
      "name": "Outagamie Cty Arpt",
      "cityCode": "ATW",
      "cityName": "Appleton",
      "countryName": "UNITED STATES",
      "countryCode": "US",
      "timezone": "-6",
      "lat": "44.257526",
      "lon": "-88.507576",
      "city": "true"
    },
    {
      "id": "306",
      "code": "ATY",
      "name": "Watertown Municipal",
      "cityCode": "ATY",
      "cityName": "Watertown",
      "countryName": "UNITED STATES",
      "countryCode": "US",
      "timezone": "-6",
      "lat": "44.914",
      "lon": "-97.1547",
      "city": "true"
    },
    {
      "id": "307",
      "code": "AUA",
      "name": "Reina Beatrix Arpt",
      "cityCode": "AUA",
      "cityName": "Aruba",
      "countryName": "ARUBA",
      "countryCode": "AW",
      "timezone": "-4",
      "lat": "12.501389",
      "lon": "-70.015221",
      "city": "true"
    },
    {
      "id": "308",
      "code": "AUG",
      "name": "Maine State Arpt",
      "cityCode": "AUG",
      "cityName": "Augusta",
      "countryName": "UNITED STATES",
      "countryCode": "US",
      "timezone": "-5",
      "lat": "44.320647",
      "lon": "-69.797317",
      "city": "true"
    },
    {
      "id": "309",
      "code": "AUH",
      "name": "Dhabi Intl Arpt",
      "cityCode": "AUH",
      "cityName": "Abu Dhabi",
      "countryName": "UNITED ARAB EMIRATES",
      "countryCode": "AE",
      "timezone": "4",
      "lat": "24.432972",
      "lon": "54.651138",
      "city": "true"
    },
    {
      "id": "310",
      "code": "AUO",
      "name": "Auburn Opelika",
      "cityCode": "AUO",
      "cityName": "Auburn",
      "countryName": "UNITED STATES",
      "countryCode": "US",
      "timezone": "-6",
      "lat": "0",
      "lon": "0",
      "city": "true"
    },
    {
      "id": "311",
      "code": "AUQ",
      "name": "Atuona Arpt",
      "cityCode": "AUQ",
      "cityName": "Atuona",
      "countryName": "FRENCH POLYNESIA",
      "countryCode": "PF",
      "timezone": "-9",
      "lat": "-9.768794",
      "lon": "-139.01125",
      "city": "true"
    },
    {
      "id": "312",
      "code": "AUR",
      "name": "Tronquieres Arpt",
      "cityCode": "AUR",
      "cityName": "Aurillac",
      "countryName": "FRANCE",
      "countryCode": "FR",
      "timezone": "1",
      "lat": "44.891388",
      "lon": "2.421944",
      "city": "true"
    },
    {
      "id": "313",
      "code": "AUS",
      "name": "Bergstrom Intl Arpt",
      "cityCode": "AUS",
      "cityName": "Austin",
      "countryName": "UNITED STATES",
      "countryCode": "US",
      "timezone": "-6",
      "lat": "30.194528",
      "lon": "-97.669889",
      "city": "true"
    },
    {
      "id": "314",
      "code": "AUU",
      "name": "Aurukin Arpt",
      "cityCode": "AUU",
      "cityName": "Aurukun Mission",
      "countryName": "AUSTRALIA",
      "countryCode": "AU",
      "timezone": "10",
      "lat": "-13.3539",
      "lon": "141.721",
      "city": "true"
    },
    {
      "id": "315",
      "code": "AUW",
      "name": "Wausau Municipal Arpt",
      "cityCode": "AUW",
      "cityName": "Wausau",
      "countryName": "UNITED STATES",
      "countryCode": "US",
      "timezone": "-6",
      "lat": "44.926285",
      "lon": "-89.627002",
      "city": "true"
    },
    {
      "id": "316",
      "code": "AUX",
      "name": "Araguaina Arpt",
      "cityCode": "AUX",
      "cityName": "Araguaina",
      "countryName": "BRAZIL",
      "countryCode": "BR",
      "timezone": "-3",
      "lat": "-7.228333",
      "lon": "-48.240833",
      "city": "true"
    },
    {
      "id": "317",
      "code": "AUZ",
      "name": "Aurora Municipal Arpt",
      "cityCode": "AUZ",
      "cityName": "Aurora",
      "countryName": "UNITED STATES",
      "countryCode": "US",
      "timezone": "-6",
      "lat": "0",
      "lon": "0",
      "city": "true"
    },
    {
      "id": "318",
      "code": "AVI",
      "name": "Maximo Gomez Arpt",
      "cityCode": "AVI",
      "cityName": "Ciego De Avila",
      "countryName": "CUBA",
      "countryCode": "CU",
      "timezone": "-5",
      "lat": "22.027053",
      "lon": "-78.789617",
      "city": "true"
    },
    {
      "id": "319",
      "code": "AVL",
      "name": "Asheville Municipal Arpt",
      "cityCode": "AVL",
      "cityName": "Asheville",
      "countryName": "UNITED STATES",
      "countryCode": "US",
      "timezone": "-5",
      "lat": "35.436194",
      "lon": "-82.541806",
      "city": "true"
    },
    {
      "id": "320",
      "code": "AVN",
      "name": "Avignon Caumont Arpt",
      "cityCode": "AVN",
      "cityName": "Avignon",
      "countryName": "FRANCE",
      "countryCode": "FR",
      "timezone": "1",
      "lat": "43.9073",
      "lon": "4.901831",
      "city": "true"
    },
    {
      "id": "321",
      "code": "AVP",
      "name": "Wilkes Barre Scranton Intl Arpt",
      "cityCode": "AVP",
      "cityName": "Scranton",
      "countryName": "UNITED STATES",
      "countryCode": "US",
      "timezone": "-5",
      "lat": "41.338478",
      "lon": "-75.723403",
      "city": "true"
    },
    {
      "id": "322",
      "code": "AVV",
      "name": "Avalon Arpt",
      "cityCode": "MEL",
      "cityName": "Melbourne",
      "countryName": "AUSTRALIA",
      "countryCode": "AU",
      "timezone": "11",
      "lat": "-38.03944",
      "lon": "144.469444",
      "city": "false"
    },
    {
      "id": "323",
      "code": "AWM",
      "name": "West Memphis Municipal Arpt",
      "cityCode": "MEM",
      "cityName": "Memphis",
      "countryName": "UNITED STATES",
      "countryCode": "US",
      "timezone": "-6",
      "lat": "0",
      "lon": "0",
      "city": "false"
    },
    {
      "id": "324",
      "code": "AXA",
      "name": "Wallblake Municipal",
      "cityCode": "AXA",
      "cityName": "Anguilla",
      "countryName": "ANGUILLA",
      "countryCode": "AI",
      "timezone": "-4",
      "lat": "18.204834",
      "lon": "-63.055084",
      "city": "true"
    },
    {
      "id": "325",
      "code": "AXD",
      "name": "Dhmokritos Arpt",
      "cityCode": "AXD",
      "cityName": "Alexandroupolis",
      "countryName": "GREECE",
      "countryCode": "GR",
      "timezone": "2",
      "lat": "40.855869",
      "lon": "25.956264",
      "city": "true"
    },
    {
      "id": "326",
      "code": "AXM",
      "name": "El Eden Arpt",
      "cityCode": "AXM",
      "cityName": "Armenia",
      "countryName": "COLOMBIA",
      "countryCode": "CO",
      "timezone": "-5",
      "lat": "4.452775",
      "lon": "-75.766447",
      "city": "true"
    },
    {
      "id": "327",
      "code": "AXS",
      "name": "Altus Municipal Arpt",
      "cityCode": "LTS",
      "cityName": "Altus",
      "countryName": "UNITED STATES",
      "countryCode": "US",
      "timezone": "-6",
      "lat": "0",
      "lon": "0",
      "city": "false"
    },
    {
      "id": "328",
      "code": "AXT",
      "name": "Akita Airport",
      "cityCode": "AXT",
      "cityName": "Akita",
      "countryName": "JAPAN",
      "countryCode": "JP",
      "timezone": "9",
      "lat": "39.615556",
      "lon": "140.218611",
      "city": "true"
    },
    {
      "id": "329",
      "code": "AXV",
      "name": "Neil Armstrong Arpt",
      "cityCode": "AXV",
      "cityName": "Wapakoneta",
      "countryName": "UNITED STATES",
      "countryCode": "US",
      "timezone": "-5",
      "lat": "0",
      "lon": "0",
      "city": "true"
    },
    {
      "id": "330",
      "code": "AYP",
      "name": "Yanamilla Arpt",
      "cityCode": "AYP",
      "cityName": "Ayacucho",
      "countryName": "PERU",
      "countryCode": "PE",
      "timezone": "-5",
      "lat": "-13.15481",
      "lon": "-74.204417",
      "city": "true"
    },
    {
      "id": "331",
      "code": "AYQ",
      "name": "Connellan Arpt",
      "cityCode": "AYQ",
      "cityName": "Ayers Rock",
      "countryName": "AUSTRALIA",
      "countryCode": "AU",
      "timezone": "9",
      "lat": "-25.18611",
      "lon": "130.975556",
      "city": "true"
    },
    {
      "id": "332",
      "code": "AYR",
      "name": "Ayr Arpt",
      "cityCode": "AYR",
      "cityName": "Ayr Au",
      "countryName": "AUSTRALIA",
      "countryCode": "AU",
      "timezone": "10",
      "lat": "-19.5958",
      "lon": "147.3258",
      "city": "true"
    },
    {
      "id": "333",
      "code": "AYT",
      "name": "Antalya Airport",
      "cityCode": "AYT",
      "cityName": "Antalya",
      "countryName": "TURKEY",
      "countryCode": "TR",
      "timezone": "2",
      "lat": "36.898731",
      "lon": "30.800461",
      "city": "true"
    },
    {
      "id": "334",
      "code": "AZA",
      "name": "Williams Gateway Arpt",
      "cityCode": "PHX",
      "cityName": "Phoenix",
      "countryName": "UNITED STATES",
      "countryCode": "US",
      "timezone": "-7",
      "lat": "33.307833",
      "lon": "-111.655",
      "city": "false"
    },
    {
      "id": "335",
      "code": "AZD",
      "name": "Yazd Arpt",
      "cityCode": "AZD",
      "cityName": "Yazd",
      "countryName": "IRAN",
      "countryCode": "IR",
      "timezone": "3",
      "lat": "31.904908",
      "lon": "54.276503",
      "city": "true"
    },